{"last_updated":"15 Dec 16:00","locations":[{"provider":"ESB ecars","provider_openid":22,"name":"Topaz Service Station","lat":52.652717,"lng":-8.593319,"postcode":null,"source":{"name":"OpenChargeMap","url":"http:\/\/openchargemap.org\/site\/poi\/details\/72548"},"connectors":[{"status":"online","type":{"title":"CHAdeMO","id":1},"power":50,"quantity":1},{"status":"online","type":{"title":"CCS","id":2},"power":50,"quantity":1}]},{"provider":"ESB ecars","provider_openid":22,"name":"Drogheda Railway Station Car Park","lat":53.7119,"lng":-6.3366,"postcode":null,"source":{"name":"OpenChargeMap","url":"http:\/\/openchargemap.org\/site\/poi\/details\/72495"},"connectors":[{"status":"online","type":{"title":"AC (socket)","id":4},"power":22,"quantity":2}]},{"provider":"ESB ecars","provider_openid":22,"name":"Glynn's Centra\/Topaz Service Station","lat":53.303787991084,"lng":-8.9421587619019,"postcode":null,"source":{"name":"OpenChargeMap","url":"http:\/\/openchargemap.org\/site\/poi\/details\/72009"},"connectors":[{"status":"online","type":{"title":"CHAdeMO","id":1},"power":50,"quantity":1},{"status":"online","type":{"title":"CCS","id":2},"power":50,"quantity":1},{"status":"online","type":{"title":"AC (tethered)","id":3},"power":43,"quantity":1}]},{"provider":"ESB ecars","provider_openid":22,"name":"Riverside","lat":54.2712432,"lng":-8.4650039000001,"postcode":null,"source":{"name":"OpenChargeMap","url":"http:\/\/openchargemap.org\/site\/poi\/details\/70927"},"connectors":[{"status":"online","type":{"title":"AC (socket)","id":4},"power":22,"quantity":2}]},{"provider":"ESB ecars","provider_openid":22,"name":"Casey's Centra (Topaz)","lat":53.854221,"lng":-9.305581,"postcode":null,"source":{"name":"OpenChargeMap","url":"http:\/\/openchargemap.org\/site\/poi\/details\/70774"},"connectors":[{"status":"online","type":{"title":"CHAdeMO","id":1},"power":50,"quantity":1},{"status":"online","type":{"title":"CCS","id":2},"power":50,"quantity":1}]},{"provider":"ESB ecars","provider_openid":22,"name":"9-12 Union Place","lat":54.2736851,"lng":-8.4808176,"postcode":null,"source":{"name":"OpenChargeMap","url":"http:\/\/openchargemap.org\/site\/poi\/details\/67802"},"connectors":[{"status":"online","type":{"title":"AC (socket)","id":4},"power":22,"quantity":2}]},{"provider":"ESB ecars","provider_openid":22,"name":"Merchant's Quay","lat":52.667322,"lng":-8.623874,"postcode":null,"source":{"name":"OpenChargeMap","url":"http:\/\/openchargemap.org\/site\/poi\/details\/66693"},"connectors":[{"status":"online","type":{"title":"AC (socket)","id":4},"power":22,"quantity":2}]},{"provider":"ESB ecars","provider_openid":22,"name":"Off Dunkellin Terrace","lat":53.092133,"lng":-8.221551,"postcode":null,"source":{"name":"OpenChargeMap","url":"http:\/\/openchargemap.org\/site\/poi\/details\/66634"},"connectors":[{"status":"online","type":{"title":"AC (socket)","id":4},"power":22,"quantity":2}]},{"provider":"ESB ecars","provider_openid":22,"name":"Castle Street","lat":53.633039,"lng":-8.18993,"postcode":null,"source":{"name":"OpenChargeMap","url":"http:\/\/openchargemap.org\/site\/poi\/details\/66620"},"connectors":[{"status":"online","type":{"title":"AC (socket)","id":4},"power":22,"quantity":2}]},{"provider":"ESB ecars","provider_openid":22,"name":"Castlebar Street","lat":53.8007,"lng":-9.5199,"postcode":null,"source":{"name":"OpenChargeMap","url":"http:\/\/openchargemap.org\/site\/poi\/details\/66619"},"connectors":[{"status":"online","type":{"title":"AC (socket)","id":4},"power":22,"quantity":2}]},{"provider":"ESB ecars","provider_openid":22,"name":"Barrack Lane","lat":52.395284,"lng":-6.943578,"postcode":null,"source":{"name":"OpenChargeMap","url":"http:\/\/openchargemap.org\/site\/poi\/details\/66618"},"connectors":[{"status":"online","type":{"title":"AC (socket)","id":4},"power":22,"quantity":2}]},{"provider":"ESB ecars","provider_openid":22,"name":"Foundation Car Park @ University Concert Hall","lat":52.675091,"lng":-8.5739,"postcode":null,"source":{"name":"OpenChargeMap","url":"http:\/\/openchargemap.org\/site\/poi\/details\/66617"},"connectors":[{"status":"unknown","type":{"title":"AC (socket)","id":4},"power":22,"quantity":2}]},{"provider":"ESB ecars","provider_openid":22,"name":"Brandon Car Park","lat":52.2666,"lng":-9.70961,"postcode":null,"source":{"name":"OpenChargeMap","url":"http:\/\/openchargemap.org\/site\/poi\/details\/66616"},"connectors":[{"status":"online","type":{"title":"AC (socket)","id":4},"power":22,"quantity":2}]},{"provider":"ESB ecars","provider_openid":22,"name":"Ballybricken Green","lat":52.259815,"lng":-7.117449,"postcode":null,"source":{"name":"OpenChargeMap","url":"http:\/\/openchargemap.org\/site\/poi\/details\/66615"},"connectors":[{"status":"online","type":{"title":"AC (socket)","id":4},"power":22,"quantity":2}]},{"provider":"ESB ecars","provider_openid":22,"name":"Waterford Institute of Technology","lat":52.246699,"lng":-7.136054,"postcode":null,"source":{"name":"OpenChargeMap","url":"http:\/\/openchargemap.org\/site\/poi\/details\/66614"},"connectors":[{"status":"online","type":{"title":"AC (socket)","id":4},"power":22,"quantity":2}]},{"provider":"ESB ecars","provider_openid":22,"name":"Merrion Square Park","lat":53.340947,"lng":-6.250199,"postcode":null,"source":{"name":"OpenChargeMap","url":"http:\/\/openchargemap.org\/site\/poi\/details\/66613"},"connectors":[{"status":"online","type":{"title":"AC (socket)","id":4},"power":22,"quantity":2}]},{"provider":"ESB ecars","provider_openid":22,"name":"SuperValu Car Park, Ballinrobe","lat":53.622633,"lng":-9.221264,"postcode":null,"source":{"name":"OpenChargeMap","url":"http:\/\/openchargemap.org\/site\/poi\/details\/66612"},"connectors":[{"status":"online","type":{"title":"AC (socket)","id":4},"power":22,"quantity":2}]},{"provider":"ESB ecars","provider_openid":22,"name":"Mill Road","lat":53.386875,"lng":-6.374254,"postcode":null,"source":{"name":"OpenChargeMap","url":"http:\/\/openchargemap.org\/site\/poi\/details\/66611"},"connectors":[{"status":"unknown","type":{"title":"AC (socket)","id":4},"power":22,"quantity":2}]},{"provider":"ESB ecars","provider_openid":22,"name":"Lower Branch Road","lat":52.164062,"lng":-7.147005,"postcode":null,"source":{"name":"OpenChargeMap","url":"http:\/\/openchargemap.org\/site\/poi\/details\/66610"},"connectors":[{"status":"online","type":{"title":"AC (socket)","id":4},"power":22,"quantity":2}]},{"provider":"ESB ecars","provider_openid":22,"name":"Parnell Square West","lat":53.353218,"lng":-6.264812,"postcode":null,"source":{"name":"OpenChargeMap","url":"http:\/\/openchargemap.org\/site\/poi\/details\/66609"},"connectors":[{"status":"online","type":{"title":"AC (socket)","id":4},"power":22,"quantity":2}]},{"provider":"ESB ecars","provider_openid":22,"name":"Lewis Road","lat":52.061529,"lng":-9.506037,"postcode":null,"source":{"name":"OpenChargeMap","url":"http:\/\/openchargemap.org\/site\/poi\/details\/66608"},"connectors":[{"status":"offline","type":{"title":"AC (socket)","id":4},"power":22,"quantity":2}]},{"provider":"ESB ecars","provider_openid":22,"name":"Sandyford Luas Park and Ride","lat":53.277164,"lng":-6.203613,"postcode":null,"source":{"name":"OpenChargeMap","url":"http:\/\/openchargemap.org\/site\/poi\/details\/66607"},"connectors":[{"status":"unknown","type":{"title":"AC (socket)","id":4},"power":22,"quantity":2}]},{"provider":"ESB ecars","provider_openid":22,"name":"Topaz Service Station","lat":52.712314,"lng":-8.875546,"postcode":null,"source":{"name":"OpenChargeMap","url":"http:\/\/openchargemap.org\/site\/poi\/details\/66604"},"connectors":[{"status":"online","type":{"title":"CHAdeMO","id":1},"power":50,"quantity":1}]},{"provider":"ESB ecars","provider_openid":22,"name":"Hanover Bus Car Park","lat":52.833492,"lng":-6.927016,"postcode":null,"source":{"name":"OpenChargeMap","url":"http:\/\/openchargemap.org\/site\/poi\/details\/66601"},"connectors":[{"status":"online","type":{"title":"AC (socket)","id":4},"power":22,"quantity":2}]},{"provider":"ESB ecars","provider_openid":22,"name":"Circular Road","lat":53.728958,"lng":-6.88217,"postcode":null,"source":{"name":"OpenChargeMap","url":"http:\/\/openchargemap.org\/site\/poi\/details\/66600"},"connectors":[{"status":"online","type":{"title":"AC (socket)","id":4},"power":22,"quantity":2}]},{"provider":"ESB ecars","provider_openid":22,"name":"Earlsfort Terrace","lat":53.335409,"lng":-6.257851,"postcode":null,"source":{"name":"OpenChargeMap","url":"http:\/\/openchargemap.org\/site\/poi\/details\/66599"},"connectors":[{"status":"online","type":{"title":"AC (socket)","id":4},"power":22,"quantity":2}]},{"provider":"ESB ecars","provider_openid":22,"name":"Tourist Office Car Park","lat":54.040456,"lng":-6.185322,"postcode":null,"source":{"name":"OpenChargeMap","url":"http:\/\/openchargemap.org\/site\/poi\/details\/66598"},"connectors":[{"status":"offline","type":{"title":"AC (socket)","id":4},"power":22,"quantity":2}]},{"provider":"ESB ecars","provider_openid":22,"name":"Greenhills Road","lat":53.316717,"lng":-6.333704,"postcode":null,"source":{"name":"OpenChargeMap","url":"http:\/\/openchargemap.org\/site\/poi\/details\/66597"},"connectors":[{"status":"online","type":{"title":"AC (socket)","id":4},"power":22,"quantity":2}]},{"provider":"ESB ecars","provider_openid":22,"name":"SuperValu Car Park","lat":52.355664,"lng":-7.700573,"postcode":null,"source":{"name":"OpenChargeMap","url":"http:\/\/openchargemap.org\/site\/poi\/details\/66596"},"connectors":[{"status":"online","type":{"title":"AC (socket)","id":4},"power":22,"quantity":2}]},{"provider":"ESB ecars","provider_openid":22,"name":"Church Street","lat":52.981196,"lng":-6.044072,"postcode":null,"source":{"name":"OpenChargeMap","url":"http:\/\/openchargemap.org\/site\/poi\/details\/66530"},"connectors":[{"status":"online","type":{"title":"AC (socket)","id":4},"power":22,"quantity":2}]},{"provider":"ESB ecars","provider_openid":22,"name":"Park Avenue","lat":53.375177,"lng":-6.364012,"postcode":null,"source":{"name":"OpenChargeMap","url":"http:\/\/openchargemap.org\/site\/poi\/details\/66529"},"connectors":[{"status":"online","type":{"title":"AC (socket)","id":4},"power":22,"quantity":2}]},{"provider":"ESB ecars","provider_openid":22,"name":"Garda Station Car Park","lat":52.501053,"lng":-6.570085,"postcode":null,"source":{"name":"OpenChargeMap","url":"http:\/\/openchargemap.org\/site\/poi\/details\/66528"},"connectors":[{"status":"online","type":{"title":"AC (socket)","id":4},"power":22,"quantity":2}]},{"provider":"ESB ecars","provider_openid":22,"name":"Bolton Square Public Car Park","lat":53.71713,"lng":-6.354049,"postcode":null,"source":{"name":"OpenChargeMap","url":"http:\/\/openchargemap.org\/site\/poi\/details\/66527"},"connectors":[{"status":"online","type":{"title":"AC (socket)","id":4},"power":22,"quantity":2}]},{"provider":"ESB ecars","provider_openid":22,"name":"Blackhall Car Park","lat":53.523766,"lng":-7.342081,"postcode":null,"source":{"name":"OpenChargeMap","url":"http:\/\/openchargemap.org\/site\/poi\/details\/66524"},"connectors":[{"status":"offline","type":{"title":"AC (socket)","id":4},"power":22,"quantity":2}]},{"provider":"ESB ecars","provider_openid":22,"name":"Public Car Park","lat":52.505551,"lng":-6.569767,"postcode":null,"source":{"name":"OpenChargeMap","url":"http:\/\/openchargemap.org\/site\/poi\/details\/66512"},"connectors":[{"status":"online","type":{"title":"AC (socket)","id":4},"power":22,"quantity":2}]},{"provider":"ESB ecars","provider_openid":22,"name":"Copley Street","lat":51.895178,"lng":-8.467683,"postcode":null,"source":{"name":"OpenChargeMap","url":"http:\/\/openchargemap.org\/site\/poi\/details\/66511"},"connectors":[{"status":"online","type":{"title":"AC (socket)","id":4},"power":22,"quantity":2}]},{"provider":"ESB ecars","provider_openid":22,"name":"The Plaza","lat":53.331883,"lng":-6.372194,"postcode":null,"source":{"name":"OpenChargeMap","url":"http:\/\/openchargemap.org\/site\/poi\/details\/66510"},"connectors":[{"status":"online","type":{"title":"AC (socket)","id":4},"power":22,"quantity":2}]},{"provider":"ESB ecars","provider_openid":22,"name":"Mount Street Crescent","lat":53.336496,"lng":-6.242715,"postcode":null,"source":{"name":"OpenChargeMap","url":"http:\/\/openchargemap.org\/site\/poi\/details\/66495"},"connectors":[{"status":"online","type":{"title":"AC (socket)","id":4},"power":22,"quantity":2}]},{"provider":"ESB ecars","provider_openid":22,"name":"Crumlin Road","lat":53.329905,"lng":-6.299208,"postcode":null,"source":{"name":"OpenChargeMap","url":"http:\/\/openchargemap.org\/site\/poi\/details\/66494"},"connectors":[{"status":"online","type":{"title":"AC (socket)","id":4},"power":22,"quantity":2}]},{"provider":"ESB ecars","provider_openid":22,"name":"Pembroke Street","lat":53.336699,"lng":-6.252228,"postcode":null,"source":{"name":"OpenChargeMap","url":"http:\/\/openchargemap.org\/site\/poi\/details\/66493"},"connectors":[{"status":"online","type":{"title":"AC (socket)","id":4},"power":22,"quantity":2}]},{"provider":"ESB ecars","provider_openid":22,"name":"Herbert Street","lat":53.335203,"lng":-6.246205,"postcode":null,"source":{"name":"OpenChargeMap","url":"http:\/\/openchargemap.org\/site\/poi\/details\/66492"},"connectors":[{"status":"online","type":{"title":"AC (socket)","id":4},"power":22,"quantity":2}]},{"provider":"ESB ecars","provider_openid":22,"name":"County Hall Car Park","lat":52.652859,"lng":-7.248367,"postcode":null,"source":{"name":"OpenChargeMap","url":"http:\/\/openchargemap.org\/site\/poi\/details\/66491"},"connectors":[{"status":"online","type":{"title":"AC (socket)","id":4},"power":22,"quantity":2}]},{"provider":"ESB ecars","provider_openid":22,"name":"Topaz - Roche's Service Station","lat":52.866617,"lng":-7.480896,"postcode":null,"source":{"name":"OpenChargeMap","url":"http:\/\/openchargemap.org\/site\/poi\/details\/66489"},"connectors":[{"status":"online","type":{"title":"CHAdeMO","id":1},"power":50,"quantity":1},{"status":"online","type":{"title":"CCS","id":2},"power":50,"quantity":1}]},{"provider":"ESB ecars","provider_openid":22,"name":"Athlone Road","lat":53.62904,"lng":-8.18817,"postcode":null,"source":{"name":"OpenChargeMap","url":"http:\/\/openchargemap.org\/site\/poi\/details\/66488"},"connectors":[{"status":"online","type":{"title":"AC (socket)","id":4},"power":22,"quantity":2}]},{"provider":"ESB ecars","provider_openid":22,"name":"Kincora Road","lat":53.360832,"lng":-6.183082,"postcode":null,"source":{"name":"OpenChargeMap","url":"http:\/\/openchargemap.org\/site\/poi\/details\/66486"},"connectors":[{"status":"online","type":{"title":"AC (socket)","id":4},"power":22,"quantity":2}]},{"provider":"ESB ecars","provider_openid":22,"name":"Haggard Street","lat":53.558067,"lng":-6.789353,"postcode":null,"source":{"name":"OpenChargeMap","url":"http:\/\/openchargemap.org\/site\/poi\/details\/66485"},"connectors":[{"status":"online","type":{"title":"AC (socket)","id":4},"power":22,"quantity":2}]},{"provider":"ESB ecars","provider_openid":22,"name":"Cork County Hall","lat":51.893018,"lng":-8.507823,"postcode":null,"source":{"name":"OpenChargeMap","url":"http:\/\/openchargemap.org\/site\/poi\/details\/66475"},"connectors":[{"status":"online","type":{"title":"AC (socket)","id":4},"power":22,"quantity":2}]},{"provider":"ESB ecars","provider_openid":22,"name":"Ballymodan Place","lat":51.744232,"lng":-8.739839,"postcode":null,"source":{"name":"OpenChargeMap","url":"http:\/\/openchargemap.org\/site\/poi\/details\/66474"},"connectors":[{"status":"online","type":{"title":"AC (socket)","id":4},"power":22,"quantity":2}]},{"provider":"ESB ecars","provider_openid":22,"name":"Greek Street","lat":53.347479,"lng":-6.273155,"postcode":null,"source":{"name":"OpenChargeMap","url":"http:\/\/openchargemap.org\/site\/poi\/details\/66470"},"connectors":[{"status":"online","type":{"title":"AC (socket)","id":4},"power":22,"quantity":2}]},{"provider":"ESB ecars","provider_openid":22,"name":"Saint Agnes Road","lat":53.31948,"lng":-6.315448,"postcode":null,"source":{"name":"OpenChargeMap","url":"http:\/\/openchargemap.org\/site\/poi\/details\/66469"},"connectors":[{"status":"offline","type":{"title":"AC (socket)","id":4},"power":22,"quantity":2}]},{"provider":"ESB ecars","provider_openid":22,"name":"Main Street","lat":53.45423,"lng":-6.223713,"postcode":null,"source":{"name":"OpenChargeMap","url":"http:\/\/openchargemap.org\/site\/poi\/details\/66468"},"connectors":[{"status":"online","type":{"title":"AC (socket)","id":4},"power":22,"quantity":2}]},{"provider":"ESB ecars","provider_openid":22,"name":"Liffey Street West","lat":53.347636,"lng":-6.285234,"postcode":null,"source":{"name":"OpenChargeMap","url":"http:\/\/openchargemap.org\/site\/poi\/details\/66467"},"connectors":[{"status":"online","type":{"title":"AC (socket)","id":4},"power":22,"quantity":2}]},{"provider":"ESB ecars","provider_openid":22,"name":"The Promenade","lat":52.159399,"lng":-7.14197,"postcode":null,"source":{"name":"OpenChargeMap","url":"http:\/\/openchargemap.org\/site\/poi\/details\/66466"},"connectors":[{"status":"online","type":{"title":"AC (socket)","id":4},"power":22,"quantity":2}]},{"provider":"ESB ecars","provider_openid":22,"name":"Saint James' Terrace","lat":53.451232,"lng":-6.15157,"postcode":null,"source":{"name":"OpenChargeMap","url":"http:\/\/openchargemap.org\/site\/poi\/details\/66465"},"connectors":[{"status":"online","type":{"title":"AC (socket)","id":4},"power":22,"quantity":2}]},{"provider":"ESB ecars","provider_openid":22,"name":"Pery Square","lat":52.6582,"lng":-8.6294,"postcode":null,"source":{"name":"OpenChargeMap","url":"http:\/\/openchargemap.org\/site\/poi\/details\/66464"},"connectors":[{"status":"online","type":{"title":"AC (socket)","id":4},"power":22,"quantity":2}]},{"provider":"ESB ecars","provider_openid":22,"name":"Mark Street","lat":53.3453,"lng":-6.2513,"postcode":null,"source":{"name":"OpenChargeMap","url":"http:\/\/openchargemap.org\/site\/poi\/details\/66463"},"connectors":[{"status":"online","type":{"title":"AC (socket)","id":4},"power":22,"quantity":2}]},{"provider":"ESB ecars","provider_openid":22,"name":"Quinsborough Road","lat":53.204956,"lng":-6.103734,"postcode":null,"source":{"name":"OpenChargeMap","url":"http:\/\/openchargemap.org\/site\/poi\/details\/66448"},"connectors":[{"status":"online","type":{"title":"AC (socket)","id":4},"power":22,"quantity":2}]},{"provider":"ESB ecars","provider_openid":22,"name":"Irish Rail Charleville","lat":52.346839,"lng":-8.65417,"postcode":null,"source":{"name":"OpenChargeMap","url":"http:\/\/openchargemap.org\/site\/poi\/details\/66445"},"connectors":[{"status":"online","type":{"title":"AC (socket)","id":4},"power":22,"quantity":2}]},{"provider":"ESB ecars","provider_openid":22,"name":"Irish Rail Leixlip Luisa Bridge","lat":53.369508,"lng":-6.507169,"postcode":null,"source":{"name":"OpenChargeMap","url":"http:\/\/openchargemap.org\/site\/poi\/details\/66444"},"connectors":[{"status":"online","type":{"title":"AC (socket)","id":4},"power":22,"quantity":2}]},{"provider":"ESB ecars","provider_openid":22,"name":"Public Car Park","lat":53.610233,"lng":-6.182937,"postcode":null,"source":{"name":"OpenChargeMap","url":"http:\/\/openchargemap.org\/site\/poi\/details\/66443"},"connectors":[{"status":"offline","type":{"title":"AC (socket)","id":4},"power":22,"quantity":2}]},{"provider":"ESB ecars","provider_openid":22,"name":"Public Car Park","lat":53.8569,"lng":-9.3007,"postcode":null,"source":{"name":"OpenChargeMap","url":"http:\/\/openchargemap.org\/site\/poi\/details\/66442"},"connectors":[{"status":"unknown","type":{"title":"AC (socket)","id":4},"power":22,"quantity":2}]},{"provider":"ESB ecars","provider_openid":22,"name":"Public Car Parking","lat":53.553891,"lng":-6.791855,"postcode":null,"source":{"name":"OpenChargeMap","url":"http:\/\/openchargemap.org\/site\/poi\/details\/66441"},"connectors":[{"status":"online","type":{"title":"AC (socket)","id":4},"power":22,"quantity":2}]},{"provider":"ESB ecars","provider_openid":22,"name":"Bus Station Car Park","lat":53.710949,"lng":-6.355072,"postcode":null,"source":{"name":"OpenChargeMap","url":"http:\/\/openchargemap.org\/site\/poi\/details\/66438"},"connectors":[{"status":"offline","type":{"title":"AC (socket)","id":4},"power":22,"quantity":2}]},{"provider":"ESB ecars","provider_openid":22,"name":"Yeats Tavern & Davis' Restaurant","lat":54.328887,"lng":-8.501889,"postcode":null,"source":{"name":"OpenChargeMap","url":"http:\/\/openchargemap.org\/site\/poi\/details\/66437"},"connectors":[{"status":"online","type":{"title":"AC (socket)","id":4},"power":22,"quantity":2}]},{"provider":"ESB ecars","provider_openid":22,"name":"Fair Green Car Park","lat":52.650076,"lng":-7.257542,"postcode":null,"source":{"name":"OpenChargeMap","url":"http:\/\/openchargemap.org\/site\/poi\/details\/66399"},"connectors":[{"status":"online","type":{"title":"AC (socket)","id":4},"power":22,"quantity":2}]},{"provider":"ESB ecars","provider_openid":22,"name":"Chelmsford Road","lat":53.325515,"lng":-6.252422,"postcode":null,"source":{"name":"OpenChargeMap","url":"http:\/\/openchargemap.org\/site\/poi\/details\/66394"},"connectors":[{"status":"online","type":{"title":"AC (socket)","id":4},"power":22,"quantity":2}]},{"provider":"ESB ecars","provider_openid":22,"name":"Irish Rail Arklow","lat":52.794954,"lng":-6.159181,"postcode":null,"source":{"name":"OpenChargeMap","url":"http:\/\/openchargemap.org\/site\/poi\/details\/66390"},"connectors":[{"status":"online","type":{"title":"AC (socket)","id":4},"power":22,"quantity":2}]},{"provider":"ESB ecars","provider_openid":22,"name":"Irish Rail Tullamore","lat":53.270244,"lng":-7.499381,"postcode":null,"source":{"name":"OpenChargeMap","url":"http:\/\/openchargemap.org\/site\/poi\/details\/66387"},"connectors":[{"status":"online","type":{"title":"AC (socket)","id":4},"power":22,"quantity":2}]},{"provider":"ESB ecars","provider_openid":22,"name":"Irish Rail Athenry","lat":53.29953,"lng":-8.75104,"postcode":null,"source":{"name":"OpenChargeMap","url":"http:\/\/openchargemap.org\/site\/poi\/details\/66384"},"connectors":[{"status":"online","type":{"title":"AC (socket)","id":4},"power":22,"quantity":2}]},{"provider":"ESB ecars","provider_openid":22,"name":"Irish Rail Kildare","lat":53.162374,"lng":-6.908265,"postcode":null,"source":{"name":"OpenChargeMap","url":"http:\/\/openchargemap.org\/site\/poi\/details\/66382"},"connectors":[{"status":"online","type":{"title":"AC (socket)","id":4},"power":22,"quantity":2}]},{"provider":"ESB ecars","provider_openid":22,"name":"Irish Rail Cork Kent","lat":51.9021,"lng":-8.45634,"postcode":null,"source":{"name":"OpenChargeMap","url":"http:\/\/openchargemap.org\/site\/poi\/details\/66381"},"connectors":[{"status":"online","type":{"title":"AC (socket)","id":4},"power":22,"quantity":2}]},{"provider":"ESB ecars","provider_openid":22,"name":"Irish Rail Cork Kent","lat":51.9021,"lng":-8.45634,"postcode":null,"source":{"name":"OpenChargeMap","url":"http:\/\/openchargemap.org\/site\/poi\/details\/66380"},"connectors":[{"status":"online","type":{"title":"AC (socket)","id":4},"power":22,"quantity":2}]},{"provider":"ESB ecars","provider_openid":22,"name":"Irish Rail Portlaoise","lat":53.036593,"lng":-7.301432,"postcode":null,"source":{"name":"OpenChargeMap","url":"http:\/\/openchargemap.org\/site\/poi\/details\/66378"},"connectors":[{"status":"online","type":{"title":"AC (socket)","id":4},"power":22,"quantity":2}]},{"provider":"ESB ecars","provider_openid":22,"name":"Irish Rail Clara","lat":53.340138,"lng":-7.616688,"postcode":null,"source":{"name":"OpenChargeMap","url":"http:\/\/openchargemap.org\/site\/poi\/details\/66377"},"connectors":[{"status":"online","type":{"title":"AC (socket)","id":4},"power":22,"quantity":2}]},{"provider":"ESB ecars","provider_openid":22,"name":"Irish Rail Mullingar","lat":53.522866,"lng":-7.34717,"postcode":null,"source":{"name":"OpenChargeMap","url":"http:\/\/openchargemap.org\/site\/poi\/details\/66375"},"connectors":[{"status":"unknown","type":{"title":"AC (socket)","id":4},"power":22,"quantity":2}]},{"provider":"ESB ecars","provider_openid":22,"name":"Bedford Row","lat":52.663928,"lng":-8.629209,"postcode":null,"source":{"name":"OpenChargeMap","url":"http:\/\/openchargemap.org\/site\/poi\/details\/66331"},"connectors":[{"status":"offline","type":{"title":"AC (socket)","id":4},"power":22,"quantity":2}]},{"provider":"ESB ecars","provider_openid":22,"name":"Off Park Lane","lat":51.852858,"lng":-8.295589,"postcode":null,"source":{"name":"OpenChargeMap","url":"http:\/\/openchargemap.org\/site\/poi\/details\/66330"},"connectors":[{"status":"online","type":{"title":"AC (socket)","id":4},"power":22,"quantity":2}]},{"provider":"ESB ecars","provider_openid":22,"name":"Station House Car Park","lat":52.230261,"lng":-9.465842,"postcode":null,"source":{"name":"OpenChargeMap","url":"http:\/\/openchargemap.org\/site\/poi\/details\/66329"},"connectors":[{"status":"online","type":{"title":"AC (socket)","id":4},"power":22,"quantity":2}]},{"provider":"ESB ecars","provider_openid":22,"name":"Irish Rail Mallow Station","lat":52.139237,"lng":-8.654588,"postcode":null,"source":{"name":"OpenChargeMap","url":"http:\/\/openchargemap.org\/site\/poi\/details\/66248"},"connectors":[{"status":"online","type":{"title":"AC (socket)","id":4},"power":22,"quantity":2}]},{"provider":"ESB ecars","provider_openid":22,"name":"North Street","lat":52.345534,"lng":-7.41366,"postcode":null,"source":{"name":"OpenChargeMap","url":"http:\/\/openchargemap.org\/site\/poi\/details\/66247"},"connectors":[{"status":"online","type":{"title":"AC (socket)","id":4},"power":22,"quantity":2}]},{"provider":"ESB ecars","provider_openid":22,"name":"McCurtain Street","lat":53.527025,"lng":-7.336114,"postcode":null,"source":{"name":"OpenChargeMap","url":"http:\/\/openchargemap.org\/site\/poi\/details\/66242"},"connectors":[{"status":"offline","type":{"title":"AC (socket)","id":4},"power":22,"quantity":2}]},{"provider":"ESB ecars","provider_openid":22,"name":"Bray Road","lat":53.260088,"lng":-6.149376,"postcode":null,"source":{"name":"OpenChargeMap","url":"http:\/\/openchargemap.org\/site\/poi\/details\/66241"},"connectors":[{"status":"unknown","type":{"title":"AC (socket)","id":4},"power":22,"quantity":2}]},{"provider":"ESB ecars","provider_openid":22,"name":"Bray Road","lat":53.260088,"lng":-6.149376,"postcode":null,"source":{"name":"OpenChargeMap","url":"http:\/\/openchargemap.org\/site\/poi\/details\/66241"},"connectors":[{"status":"unknown","type":{"title":"AC (socket)","id":4},"power":22,"quantity":2}]},{"provider":"ESB ecars","provider_openid":22,"name":"Off Market Road","lat":52.107344,"lng":-9.786073,"postcode":null,"source":{"name":"OpenChargeMap","url":"http:\/\/openchargemap.org\/site\/poi\/details\/66240"},"connectors":[{"status":"online","type":{"title":"AC (socket)","id":4},"power":22,"quantity":2}]},{"provider":"ESB ecars","provider_openid":22,"name":"Wolfe Tone Square","lat":54.054302,"lng":-8.729412,"postcode":null,"source":{"name":"OpenChargeMap","url":"http:\/\/openchargemap.org\/site\/poi\/details\/66237"},"connectors":[{"status":"online","type":{"title":"AC (socket)","id":4},"power":22,"quantity":2}]},{"provider":"ESB ecars","provider_openid":22,"name":"IDA Business Park","lat":53.418942,"lng":-7.893269,"postcode":null,"source":{"name":"OpenChargeMap","url":"http:\/\/openchargemap.org\/site\/poi\/details\/66230"},"connectors":[{"status":"online","type":{"title":"AC (socket)","id":4},"power":22,"quantity":2}]},{"provider":"ESB ecars","provider_openid":22,"name":"Irish Rail Dalkey DART Station","lat":53.2758509,"lng":-6.1028965,"postcode":null,"source":{"name":"OpenChargeMap","url":"http:\/\/openchargemap.org\/site\/poi\/details\/66228"},"connectors":[{"status":"online","type":{"title":"AC (socket)","id":4},"power":22,"quantity":2}]},{"provider":"ESB ecars","provider_openid":22,"name":"Galway Retail Park","lat":53.2802,"lng":-9.0496,"postcode":null,"source":{"name":"OpenChargeMap","url":"http:\/\/openchargemap.org\/site\/poi\/details\/66227"},"connectors":[{"status":"unknown","type":{"title":"AC (socket)","id":4},"power":22,"quantity":2}]},{"provider":"ESB ecars","provider_openid":22,"name":"Industrial Yarns Bray Ltd (Lidl)","lat":53.208651,"lng":-6.112826,"postcode":null,"source":{"name":"OpenChargeMap","url":"http:\/\/openchargemap.org\/site\/poi\/details\/66226"},"connectors":[{"status":"offline","type":{"title":"AC (socket)","id":4},"power":22,"quantity":2}]},{"provider":"ESB ecars","provider_openid":22,"name":"Irish Rail Booterstown DART Station","lat":53.310296,"lng":-6.195844,"postcode":null,"source":{"name":"OpenChargeMap","url":"http:\/\/openchargemap.org\/site\/poi\/details\/66217"},"connectors":[{"status":"offline","type":{"title":"AC (socket)","id":4},"power":22,"quantity":2}]},{"provider":"ESB ecars","provider_openid":22,"name":"Bective Street","lat":53.722954,"lng":-6.881176,"postcode":null,"source":{"name":"OpenChargeMap","url":"http:\/\/openchargemap.org\/site\/poi\/details\/66213"},"connectors":[{"status":"online","type":{"title":"AC (socket)","id":4},"power":22,"quantity":2}]},{"provider":"ESB ecars","provider_openid":22,"name":"Alverno Terrace","lat":53.678649,"lng":-6.23974,"postcode":null,"source":{"name":"OpenChargeMap","url":"http:\/\/openchargemap.org\/site\/poi\/details\/66208"},"connectors":[{"status":"offline","type":{"title":"AC (socket)","id":4},"power":22,"quantity":2}]},{"provider":"ESB ecars","provider_openid":22,"name":"Camlin Esso\/Spar Service Station","lat":53.724529,"lng":-7.78376,"postcode":null,"source":{"name":"OpenChargeMap","url":"http:\/\/openchargemap.org\/site\/poi\/details\/66181"},"connectors":[{"status":"online","type":{"title":"CHAdeMO","id":1},"power":50,"quantity":1}]},{"provider":"ESB ecars","provider_openid":22,"name":"Public Car Park","lat":52.258711,"lng":-7.105696,"postcode":null,"source":{"name":"OpenChargeMap","url":"http:\/\/openchargemap.org\/site\/poi\/details\/66179"},"connectors":[{"status":"online","type":{"title":"AC (socket)","id":4},"power":22,"quantity":2}]},{"provider":"ESB ecars","provider_openid":22,"name":"Irish Rail Blackrock DART Station","lat":53.302596,"lng":-6.178974,"postcode":null,"source":{"name":"OpenChargeMap","url":"http:\/\/openchargemap.org\/site\/poi\/details\/66176"},"connectors":[{"status":"online","type":{"title":"AC (socket)","id":4},"power":22,"quantity":2}]},{"provider":"ESB ecars","provider_openid":22,"name":"Off O'Connell Street","lat":51.946705,"lng":-10.227204,"postcode":null,"source":{"name":"OpenChargeMap","url":"http:\/\/openchargemap.org\/site\/poi\/details\/66115"},"connectors":[{"status":"online","type":{"title":"AC (socket)","id":4},"power":22,"quantity":2}]},{"provider":"ESB ecars","provider_openid":22,"name":"Belmont Avenue","lat":53.322343,"lng":-6.238683,"postcode":"D04","source":{"name":"OpenChargeMap","url":"http:\/\/openchargemap.org\/site\/poi\/details\/66103"},"connectors":[{"status":"online","type":{"title":"AC (socket)","id":4},"power":22,"quantity":2}]},{"provider":"ESB ecars","provider_openid":22,"name":"Deasy's Topaz Service Station","lat":51.919755,"lng":-8.482733,"postcode":null,"source":{"name":"OpenChargeMap","url":"http:\/\/openchargemap.org\/site\/poi\/details\/66098"},"connectors":[{"status":"online","type":{"title":"CHAdeMO","id":1},"power":50,"quantity":1}]},{"provider":"ESB ecars","provider_openid":22,"name":"27 Fitzwilliam Street Lower","lat":53.3379428,"lng":-6.2480143,"postcode":null,"source":{"name":"OpenChargeMap","url":"http:\/\/openchargemap.org\/site\/poi\/details\/66013"},"connectors":[{"status":"online","type":{"title":"AC (socket)","id":4},"power":22,"quantity":2}]},{"provider":"ESB ecars","provider_openid":22,"name":"Irish Rail Clontarf DART Station","lat":53.362913,"lng":-6.227746,"postcode":null,"source":{"name":"OpenChargeMap","url":"http:\/\/openchargemap.org\/site\/poi\/details\/65943"},"connectors":[{"status":"online","type":{"title":"AC (socket)","id":4},"power":22,"quantity":2}]},{"provider":"ESB ecars","provider_openid":22,"name":"Main Street","lat":53.2802213,"lng":-6.4709761,"postcode":null,"source":{"name":"OpenChargeMap","url":"http:\/\/openchargemap.org\/site\/poi\/details\/65940"},"connectors":[{"status":"online","type":{"title":"AC (socket)","id":4},"power":22,"quantity":2}]},{"provider":"ESB ecars","provider_openid":22,"name":"Public Car Park","lat":53.717924,"lng":-6.363419,"postcode":null,"source":{"name":"OpenChargeMap","url":"http:\/\/openchargemap.org\/site\/poi\/details\/65939"},"connectors":[{"status":"online","type":{"title":"AC (socket)","id":4},"power":22,"quantity":2}]},{"provider":"ESB ecars","provider_openid":22,"name":"Village Centre Car Park","lat":53.9625675,"lng":-6.3670793,"postcode":null,"source":{"name":"OpenChargeMap","url":"http:\/\/openchargemap.org\/site\/poi\/details\/65938"},"connectors":[{"status":"online","type":{"title":"AC (socket)","id":4},"power":22,"quantity":2}]},{"provider":"ESB ecars","provider_openid":22,"name":"Garvey's Car Park","lat":52.271089695077,"lng":-9.7099517202378,"postcode":null,"source":{"name":"OpenChargeMap","url":"http:\/\/openchargemap.org\/site\/poi\/details\/65933"},"connectors":[{"status":"online","type":{"title":"AC (socket)","id":4},"power":22,"quantity":2}]},{"provider":"ESB ecars","provider_openid":22,"name":"Irish Rail Hazelhatch & Cellbridge Station","lat":53.323004,"lng":-6.523586,"postcode":null,"source":{"name":"OpenChargeMap","url":"http:\/\/openchargemap.org\/site\/poi\/details\/65926"},"connectors":[{"status":"unknown","type":{"title":"AC (socket)","id":4},"power":22,"quantity":2}]},{"provider":"ESB ecars","provider_openid":22,"name":"Irish Rail Plunkett Station","lat":52.26604,"lng":-7.116893,"postcode":null,"source":{"name":"OpenChargeMap","url":"http:\/\/openchargemap.org\/site\/poi\/details\/65922"},"connectors":[{"status":"online","type":{"title":"AC (socket)","id":4},"power":22,"quantity":2}]},{"provider":"ESB ecars","provider_openid":22,"name":"Barrack Street","lat":53.7661642,"lng":-8.4833704,"postcode":null,"source":{"name":"OpenChargeMap","url":"http:\/\/openchargemap.org\/site\/poi\/details\/65914"},"connectors":[{"status":"online","type":{"title":"AC (socket)","id":4},"power":22,"quantity":2}]},{"provider":"ESB ecars","provider_openid":22,"name":"Menlo Park Hotel","lat":53.2876256,"lng":-9.0480892,"postcode":null,"source":{"name":"OpenChargeMap","url":"http:\/\/openchargemap.org\/site\/poi\/details\/65908"},"connectors":[{"status":"online","type":{"title":"AC (socket)","id":4},"power":22,"quantity":2}]},{"provider":"ESB ecars","provider_openid":22,"name":"South Lotts Road","lat":53.3388148,"lng":-6.2329738999999,"postcode":null,"source":{"name":"OpenChargeMap","url":"http:\/\/openchargemap.org\/site\/poi\/details\/65896"},"connectors":[{"status":"online","type":{"title":"AC (socket)","id":4},"power":22,"quantity":2}]},{"provider":"ESB ecars","provider_openid":22,"name":"Irish Rail Gort","lat":53.0663943,"lng":-8.8150291,"postcode":null,"source":{"name":"OpenChargeMap","url":"http:\/\/openchargemap.org\/site\/poi\/details\/64505"},"connectors":[{"status":"online","type":{"title":"AC (socket)","id":4},"power":22,"quantity":2}]},{"provider":"ESB ecars","provider_openid":22,"name":"Public Car Park, Off Abbey Street & Bank Place","lat":52.8447148,"lng":-8.9832804,"postcode":null,"source":{"name":"OpenChargeMap","url":"http:\/\/openchargemap.org\/site\/poi\/details\/64504"},"connectors":[{"status":"unknown","type":{"title":"AC (socket)","id":4},"power":22,"quantity":2}]},{"provider":"ESB ecars","provider_openid":22,"name":"Iarnrod Eireann (Irish Rail)","lat":52.839335323152,"lng":-8.9755564928055,"postcode":null,"source":{"name":"OpenChargeMap","url":"http:\/\/openchargemap.org\/site\/poi\/details\/64461"},"connectors":[{"status":"online","type":{"title":"AC (socket)","id":4},"power":22,"quantity":2}]},{"provider":"ESB ecars","provider_openid":22,"name":"Supervalu Miltown Malbay","lat":52.854144,"lng":-9.3987652172662,"postcode":null,"source":{"name":"OpenChargeMap","url":"http:\/\/openchargemap.org\/site\/poi\/details\/64459"},"connectors":[{"status":"online","type":{"title":"AC (socket)","id":4},"power":22,"quantity":2}]},{"provider":"ESB ecars","provider_openid":22,"name":"Barack Obama Plaza","lat":52.884114307006,"lng":-7.9443324819092,"postcode":null,"source":{"name":"OpenChargeMap","url":"http:\/\/openchargemap.org\/site\/poi\/details\/57641"},"connectors":[{"status":"online","type":{"title":"AC (socket)","id":4},"power":22,"quantity":2}]},{"provider":"ESB ecars","provider_openid":22,"name":"Great Gas","lat":51.746801838316,"lng":-8.7255092108674,"postcode":null,"source":{"name":"OpenChargeMap","url":"http:\/\/openchargemap.org\/site\/poi\/details\/52998"},"connectors":[{"status":"online","type":{"title":"CHAdeMO","id":1},"power":50,"quantity":1},{"status":"online","type":{"title":"CCS","id":2},"power":50,"quantity":1},{"status":"online","type":{"title":"AC (tethered)","id":3},"power":43,"quantity":1}]},{"provider":"ESB ecars","provider_openid":22,"name":"Topaz Omni Park","lat":53.393569062575,"lng":-6.2468724645455,"postcode":null,"source":{"name":"OpenChargeMap","url":"http:\/\/openchargemap.org\/site\/poi\/details\/52997"},"connectors":[{"status":"offline","type":{"title":"CHAdeMO","id":1},"power":50,"quantity":1},{"status":"offline","type":{"title":"CCS","id":2},"power":50,"quantity":1},{"status":"offline","type":{"title":"AC (socket)","id":4},"power":43,"quantity":1}]},{"provider":"ESB ecars","provider_openid":22,"name":"Clonshaugh Topaz","lat":53.412630134403,"lng":-6.2160807050545,"postcode":null,"source":{"name":"OpenChargeMap","url":"http:\/\/openchargemap.org\/site\/poi\/details\/52996"},"connectors":[{"status":"online","type":{"title":"CHAdeMO","id":1},"power":50,"quantity":1},{"status":"online","type":{"title":"CCS","id":2},"power":50,"quantity":1},{"status":"online","type":{"title":"AC (tethered)","id":3},"power":43,"quantity":1}]},{"provider":"ESB ecars","provider_openid":22,"name":"Supervalu Lucan","lat":53.348691353154,"lng":-6.452359347638,"postcode":null,"source":{"name":"OpenChargeMap","url":"http:\/\/openchargemap.org\/site\/poi\/details\/52995"},"connectors":[{"status":"online","type":{"title":"CHAdeMO","id":1},"power":50,"quantity":1},{"status":"online","type":{"title":"CCS","id":2},"power":50,"quantity":1},{"status":"online","type":{"title":"AC (tethered)","id":3},"power":43,"quantity":1}]},{"provider":"ESB ecars","provider_openid":22,"name":"Stillorgan Park Hotel","lat":53.295392557824,"lng":-6.2033402416641,"postcode":null,"source":{"name":"OpenChargeMap","url":"http:\/\/openchargemap.org\/site\/poi\/details\/52994"},"connectors":[{"status":"online","type":{"title":"CHAdeMO","id":1},"power":50,"quantity":1},{"status":"online","type":{"title":"CCS","id":2},"power":50,"quantity":1},{"status":"online","type":{"title":"AC (tethered)","id":3},"power":43,"quantity":1}]},{"provider":"ESB ecars","provider_openid":22,"name":"Drogheda","lat":53.717924,"lng":-6.363419,"postcode":null,"source":{"name":"OpenChargeMap","url":"http:\/\/openchargemap.org\/site\/poi\/details\/51249"},"connectors":[{"status":"online","type":{"title":"AC (socket)","id":4},"power":22,"quantity":2}]},{"provider":"ESB ecars","provider_openid":22,"name":"Swimming Pool","lat":53.722118,"lng":-8.996996,"postcode":null,"source":{"name":"OpenChargeMap","url":"http:\/\/openchargemap.org\/site\/poi\/details\/51250"},"connectors":[{"status":"online","type":{"title":"AC (socket)","id":4},"power":22,"quantity":2}]},{"provider":"ESB ecars","provider_openid":22,"name":"Clare Street \/ Swimming Pool Car Park","lat":53.762046,"lng":-8.765583,"postcode":null,"source":{"name":"OpenChargeMap","url":"http:\/\/openchargemap.org\/site\/poi\/details\/51251"},"connectors":[{"status":"online","type":{"title":"AC (socket)","id":4},"power":22,"quantity":2}]},{"provider":"ESB ecars","provider_openid":22,"name":"Dublin - Blackrock Main St.","lat":53.301190983637,"lng":-6.1771380901337,"postcode":"","source":{"name":"OpenChargeMap","url":"http:\/\/openchargemap.org\/site\/poi\/details\/49201"},"connectors":[{"status":"online","type":{"title":"AC (socket)","id":4},"power":22,"quantity":2}]},{"provider":"ESB ecars","provider_openid":22,"name":"Harpers Lane Car Park","lat":52.338108093926,"lng":-6.4601982938701,"postcode":null,"source":{"name":"OpenChargeMap","url":"http:\/\/openchargemap.org\/site\/poi\/details\/48828"},"connectors":[{"status":"online","type":{"title":"AC (socket)","id":4},"power":22,"quantity":2}]},{"provider":"ESB ecars","provider_openid":22,"name":"M8 Balacolla","lat":52.865775967208,"lng":-7.480556267981,"postcode":null,"source":{"name":"OpenChargeMap","url":"http:\/\/openchargemap.org\/site\/poi\/details\/48004"},"connectors":[{"status":"online","type":{"title":"CHAdeMO","id":1},"power":50,"quantity":1},{"status":"online","type":{"title":"CCS","id":2},"power":50,"quantity":1},{"status":"online","type":{"title":"AC (socket)","id":4},"power":43,"quantity":1}]},{"provider":"ESB ecars","provider_openid":22,"name":"Stillorgan LUAS Park & Ride","lat":53.280370348861,"lng":-6.2138705648263,"postcode":null,"source":{"name":"OpenChargeMap","url":"http:\/\/openchargemap.org\/site\/poi\/details\/47073"},"connectors":[{"status":"online","type":{"title":"CHAdeMO","id":1},"power":50,"quantity":1},{"status":"online","type":{"title":"CCS","id":2},"power":50,"quantity":1},{"status":"online","type":{"title":"AC (tethered)","id":3},"power":43,"quantity":1},{"status":"online","type":{"title":"AC (socket)","id":4},"power":22,"quantity":4}]},{"provider":"ESB ecars","provider_openid":22,"name":"John's Green Car park","lat":52.655593,"lng":-7.247032,"postcode":null,"source":{"name":"OpenChargeMap","url":"http:\/\/openchargemap.org\/site\/poi\/details\/44901"},"connectors":[{"status":"online","type":{"title":"AC (socket)","id":4},"power":22,"quantity":2}]},{"provider":"ESB ecars","provider_openid":22,"name":"The Bishop's Quay","lat":52.661893,"lng":-8.632049,"postcode":null,"source":{"name":"OpenChargeMap","url":"http:\/\/openchargemap.org\/site\/poi\/details\/44902"},"connectors":[{"status":"unknown","type":{"title":"AC (socket)","id":4},"power":22,"quantity":2}]},{"provider":"ESB ecars","provider_openid":22,"name":"Milk Market","lat":52.6638,"lng":-8.6216,"postcode":null,"source":{"name":"OpenChargeMap","url":"http:\/\/openchargemap.org\/site\/poi\/details\/44903"},"connectors":[{"status":"online","type":{"title":"AC (socket)","id":4},"power":22,"quantity":2}]},{"provider":"ESB ecars","provider_openid":22,"name":"Town Hall Car Park","lat":52.837679,"lng":-6.933489,"postcode":null,"source":{"name":"OpenChargeMap","url":"http:\/\/openchargemap.org\/site\/poi\/details\/44904"},"connectors":[{"status":"online","type":{"title":"AC (socket)","id":4},"power":22,"quantity":2}]},{"provider":"ESB ecars","provider_openid":22,"name":"Nelson Street","lat":53.3582,"lng":-6.2672,"postcode":null,"source":{"name":"OpenChargeMap","url":"http:\/\/openchargemap.org\/site\/poi\/details\/44907"},"connectors":[{"status":"online","type":{"title":"AC (socket)","id":4},"power":22,"quantity":2}]},{"provider":"ESB ecars","provider_openid":22,"name":"South Strand","lat":53.57915,"lng":-6.104997,"postcode":null,"source":{"name":"OpenChargeMap","url":"http:\/\/openchargemap.org\/site\/poi\/details\/44908"},"connectors":[{"status":"online","type":{"title":"AC (socket)","id":4},"power":22,"quantity":2}]},{"provider":"ESB ecars","provider_openid":22,"name":"Old Mart Car Park","lat":54.951627,"lng":-7.741693,"postcode":null,"source":{"name":"OpenChargeMap","url":"http:\/\/openchargemap.org\/site\/poi\/details\/44910"},"connectors":[{"status":"online","type":{"title":"AC (socket)","id":4},"power":22,"quantity":2}]},{"provider":"ESB ecars","provider_openid":22,"name":"Louis Convent","lat":53.973836,"lng":-6.718495,"postcode":null,"source":{"name":"OpenChargeMap","url":"http:\/\/openchargemap.org\/site\/poi\/details\/44909"},"connectors":[{"status":"offline","type":{"title":"AC (socket)","id":4},"power":22,"quantity":2}]},{"provider":"ESB ecars","provider_openid":22,"name":"Louis Convent","lat":53.973836,"lng":-6.718495,"postcode":null,"source":{"name":"OpenChargeMap","url":"http:\/\/openchargemap.org\/site\/poi\/details\/44909"},"connectors":[{"status":"offline","type":{"title":"AC (socket)","id":4},"power":22,"quantity":2}]},{"provider":"ESB ecars","provider_openid":22,"name":"M9 Services Kilcullen","lat":53.161787816824,"lng":-6.7502787376038,"postcode":"","source":{"name":"OpenChargeMap","url":"http:\/\/openchargemap.org\/site\/poi\/details\/43411"},"connectors":[{"status":"offline","type":{"title":"CHAdeMO","id":1},"power":50,"quantity":1},{"status":"offline","type":{"title":"CCS","id":2},"power":50,"quantity":1},{"status":"offline","type":{"title":"AC (socket)","id":4},"power":43,"quantity":1},{"status":"offline","type":{"title":"AC (socket)","id":4},"power":22,"quantity":2}]},{"provider":"ESB ecars","provider_openid":22,"name":"Tesco","lat":53.19518,"lng":-6.108436,"postcode":null,"source":{"name":"OpenChargeMap","url":"http:\/\/openchargemap.org\/site\/poi\/details\/31353"},"connectors":[{"status":"online","type":{"title":"CHAdeMO","id":1},"power":50,"quantity":1},{"status":"online","type":{"title":"CCS","id":2},"power":50,"quantity":1},{"status":"online","type":{"title":"AC (tethered)","id":3},"power":43,"quantity":1}]},{"provider":"ESB ecars","provider_openid":22,"name":"Thorncastle Street","lat":53.342945,"lng":-6.228056,"postcode":null,"source":{"name":"OpenChargeMap","url":"http:\/\/openchargemap.org\/site\/poi\/details\/31354"},"connectors":[{"status":"unknown","type":{"title":"AC (socket)","id":4},"power":22,"quantity":2}]},{"provider":"ESB ecars","provider_openid":22,"name":"Garvey's Sevice Station","lat":52.44862,"lng":-9.053228,"postcode":null,"source":{"name":"OpenChargeMap","url":"http:\/\/openchargemap.org\/site\/poi\/details\/25993"},"connectors":[{"status":"online","type":{"title":"CHAdeMO","id":1},"power":50,"quantity":1}]},{"provider":"ESB ecars","provider_openid":22,"name":"Reidy's Topaz","lat":52.607471,"lng":-9.099685,"postcode":null,"source":{"name":"OpenChargeMap","url":"http:\/\/openchargemap.org\/site\/poi\/details\/25994"},"connectors":[{"status":"online","type":{"title":"AC (socket)","id":4},"power":22,"quantity":2}]},{"provider":"ESB ecars","provider_openid":22,"name":"St. Canice's Council Car Park","lat":52.655331,"lng":-7.260136,"postcode":null,"source":{"name":"OpenChargeMap","url":"http:\/\/openchargemap.org\/site\/poi\/details\/25996"},"connectors":[{"status":"online","type":{"title":"AC (socket)","id":4},"power":22,"quantity":2}]},{"provider":"ESB ecars","provider_openid":22,"name":"Irish Rail Kilkenny (MacDonagh)","lat":52.654109,"lng":-7.244226,"postcode":null,"source":{"name":"OpenChargeMap","url":"http:\/\/openchargemap.org\/site\/poi\/details\/25997"},"connectors":[{"status":"online","type":{"title":"AC (socket)","id":4},"power":22,"quantity":2}]},{"provider":"ESB ecars","provider_openid":22,"name":"The Parade","lat":52.702794,"lng":-6.955983,"postcode":null,"source":{"name":"OpenChargeMap","url":"http:\/\/openchargemap.org\/site\/poi\/details\/26000"},"connectors":[{"status":"online","type":{"title":"AC (socket)","id":4},"power":22,"quantity":2}]},{"provider":"ESB ecars","provider_openid":22,"name":"Off Kennedy Street","lat":52.836332,"lng":-6.933468,"postcode":null,"source":{"name":"OpenChargeMap","url":"http:\/\/openchargemap.org\/site\/poi\/details\/26001"},"connectors":[{"status":"online","type":{"title":"AC (socket)","id":4},"power":22,"quantity":2}]},{"provider":"ESB ecars","provider_openid":22,"name":"Car Park Off Milltown Malbay Road","lat":52.928911,"lng":-9.346292,"postcode":null,"source":{"name":"OpenChargeMap","url":"http:\/\/openchargemap.org\/site\/poi\/details\/26002"},"connectors":[{"status":"online","type":{"title":"AC (socket)","id":4},"power":22,"quantity":2}]},{"provider":"ESB ecars","provider_openid":22,"name":"Off Abbeyleix Road","lat":53.030737,"lng":-7.301713,"postcode":null,"source":{"name":"OpenChargeMap","url":"http:\/\/openchargemap.org\/site\/poi\/details\/26004"},"connectors":[{"status":"online","type":{"title":"AC (socket)","id":4},"power":22,"quantity":2}]},{"provider":"ESB ecars","provider_openid":22,"name":"Applegreen","lat":53.043868,"lng":-6.089511,"postcode":null,"source":{"name":"OpenChargeMap","url":"http:\/\/openchargemap.org\/site\/poi\/details\/26005"},"connectors":[{"status":"online","type":{"title":"CHAdeMO","id":1},"power":50,"quantity":1},{"status":"online","type":{"title":"CCS","id":2},"power":50,"quantity":1}]},{"provider":"ESB ecars","provider_openid":22,"name":"The Square","lat":53.133579,"lng":-6.614196,"postcode":null,"source":{"name":"OpenChargeMap","url":"http:\/\/openchargemap.org\/site\/poi\/details\/26006"},"connectors":[{"status":"online","type":{"title":"AC (socket)","id":4},"power":22,"quantity":2}]},{"provider":"ESB ecars","provider_openid":22,"name":"Irish Rail Monasterevin Train Station","lat":53.145372,"lng":-7.06519,"postcode":null,"source":{"name":"OpenChargeMap","url":"http:\/\/openchargemap.org\/site\/poi\/details\/26007"},"connectors":[{"status":"online","type":{"title":"AC (socket)","id":4},"power":22,"quantity":2}]},{"provider":"ESB ecars","provider_openid":22,"name":"Fairgreen Street","lat":53.214347,"lng":-6.665187,"postcode":null,"source":{"name":"OpenChargeMap","url":"http:\/\/openchargemap.org\/site\/poi\/details\/26008"},"connectors":[{"status":"online","type":{"title":"AC (socket)","id":4},"power":22,"quantity":2}]},{"provider":"ESB ecars","provider_openid":22,"name":"Hedermans Car Park","lat":53.218385,"lng":-6.658147,"postcode":null,"source":{"name":"OpenChargeMap","url":"http:\/\/openchargemap.org\/site\/poi\/details\/26009"},"connectors":[{"status":"online","type":{"title":"AC (socket)","id":4},"power":22,"quantity":2}]},{"provider":"ESB ecars","provider_openid":22,"name":"Shankhill Dart Station","lat":53.236875,"lng":-6.11792,"postcode":null,"source":{"name":"OpenChargeMap","url":"http:\/\/openchargemap.org\/site\/poi\/details\/26010"},"connectors":[{"status":"online","type":{"title":"AC (socket)","id":4},"power":22,"quantity":2}]},{"provider":"ESB ecars","provider_openid":22,"name":"Irish Rail","lat":53.246846,"lng":-6.66414,"postcode":null,"source":{"name":"OpenChargeMap","url":"http:\/\/openchargemap.org\/site\/poi\/details\/26011"},"connectors":[{"status":"online","type":{"title":"AC (socket)","id":4},"power":22,"quantity":2}]},{"provider":"ESB ecars","provider_openid":22,"name":"The Park Retail Centre","lat":53.251373,"lng":-6.18537,"postcode":null,"source":{"name":"OpenChargeMap","url":"http:\/\/openchargemap.org\/site\/poi\/details\/26012"},"connectors":[{"status":"online","type":{"title":"AC (socket)","id":4},"power":22,"quantity":2}]},{"provider":"ESB ecars","provider_openid":22,"name":"Tanyard Lane","lat":53.273339,"lng":-7.490183,"postcode":null,"source":{"name":"OpenChargeMap","url":"http:\/\/openchargemap.org\/site\/poi\/details\/26013"},"connectors":[{"status":"online","type":{"title":"AC (socket)","id":4},"power":22,"quantity":2}]},{"provider":"ESB ecars","provider_openid":22,"name":"Market Square","lat":53.275635,"lng":-7.490152,"postcode":null,"source":{"name":"OpenChargeMap","url":"http:\/\/openchargemap.org\/site\/poi\/details\/26014"},"connectors":[{"status":"online","type":{"title":"AC (socket)","id":4},"power":22,"quantity":2}]},{"provider":"ESB ecars","provider_openid":22,"name":"The Square","lat":53.367976,"lng":-7.498115,"postcode":null,"source":{"name":"OpenChargeMap","url":"http:\/\/openchargemap.org\/site\/poi\/details\/26019"},"connectors":[{"status":"online","type":{"title":"AC (socket)","id":4},"power":22,"quantity":2}]},{"provider":"ESB ecars","provider_openid":22,"name":"NUI Maynooth North Campus","lat":53.38468,"lng":-6.60366,"postcode":null,"source":{"name":"OpenChargeMap","url":"http:\/\/openchargemap.org\/site\/poi\/details\/26020"},"connectors":[{"status":"online","type":{"title":"AC (socket)","id":4},"power":22,"quantity":2}]},{"provider":"ESB ecars","provider_openid":22,"name":"Main Street","lat":53.394993,"lng":-7.719377,"postcode":null,"source":{"name":"OpenChargeMap","url":"http:\/\/openchargemap.org\/site\/poi\/details\/26022"},"connectors":[{"status":"online","type":{"title":"AC (socket)","id":4},"power":22,"quantity":2}]},{"provider":"ESB ecars","provider_openid":22,"name":"Ballymahon Road","lat":53.424683,"lng":-7.934554,"postcode":null,"source":{"name":"OpenChargeMap","url":"http:\/\/openchargemap.org\/site\/poi\/details\/26024"},"connectors":[{"status":"online","type":{"title":"AC (socket)","id":4},"power":22,"quantity":2}]},{"provider":"ESB ecars","provider_openid":22,"name":"Main Street","lat":53.562243,"lng":-7.763038,"postcode":null,"source":{"name":"OpenChargeMap","url":"http:\/\/openchargemap.org\/site\/poi\/details\/26026"},"connectors":[{"status":"online","type":{"title":"AC (socket)","id":4},"power":22,"quantity":2}]},{"provider":"ESB ecars","provider_openid":22,"name":"Irish Rail Longford","lat":53.723916,"lng":-7.795273,"postcode":null,"source":{"name":"OpenChargeMap","url":"http:\/\/openchargemap.org\/site\/poi\/details\/26030"},"connectors":[{"status":"online","type":{"title":"AC (socket)","id":4},"power":22,"quantity":2}]},{"provider":"ESB ecars","provider_openid":22,"name":"Market Square","lat":53.725111,"lng":-7.800276,"postcode":null,"source":{"name":"OpenChargeMap","url":"http:\/\/openchargemap.org\/site\/poi\/details\/26031"},"connectors":[{"status":"online","type":{"title":"AC (socket)","id":4},"power":22,"quantity":2}]},{"provider":"ESB ecars","provider_openid":22,"name":"Market Street","lat":53.978095,"lng":-6.719502,"postcode":null,"source":{"name":"OpenChargeMap","url":"http:\/\/openchargemap.org\/site\/poi\/details\/26033"},"connectors":[{"status":"online","type":{"title":"AC (socket)","id":4},"power":22,"quantity":2}]},{"provider":"ESB ecars","provider_openid":22,"name":"Irish Rail Clarke","lat":54.000122,"lng":-6.412418,"postcode":null,"source":{"name":"OpenChargeMap","url":"http:\/\/openchargemap.org\/site\/poi\/details\/26034"},"connectors":[{"status":"offline","type":{"title":"AC (socket)","id":4},"power":22,"quantity":2}]},{"provider":"ESB ecars","provider_openid":22,"name":"The Ramparts Public Car Park","lat":54.003329,"lng":-6.397354,"postcode":null,"source":{"name":"OpenChargeMap","url":"http:\/\/openchargemap.org\/site\/poi\/details\/26035"},"connectors":[{"status":"online","type":{"title":"AC (socket)","id":4},"power":22,"quantity":2}]},{"provider":"ESB ecars","provider_openid":22,"name":"Long Walk Dundalk","lat":54.006182,"lng":-6.404217,"postcode":null,"source":{"name":"OpenChargeMap","url":"http:\/\/openchargemap.org\/site\/poi\/details\/26036"},"connectors":[{"status":"online","type":{"title":"AC (socket)","id":4},"power":22,"quantity":2}]},{"provider":"ESB ecars","provider_openid":22,"name":"Linenhall Street","lat":54.010244,"lng":-6.402563,"postcode":null,"source":{"name":"OpenChargeMap","url":"http:\/\/openchargemap.org\/site\/poi\/details\/26037"},"connectors":[{"status":"online","type":{"title":"AC (socket)","id":4},"power":22,"quantity":2}]},{"provider":"ESB ecars","provider_openid":22,"name":"Market Street","lat":54.075084,"lng":-7.079692,"postcode":null,"source":{"name":"OpenChargeMap","url":"http:\/\/openchargemap.org\/site\/poi\/details\/26038"},"connectors":[{"status":"online","type":{"title":"AC (socket)","id":4},"power":22,"quantity":2}]},{"provider":"ESB ecars","provider_openid":22,"name":"Castle Street","lat":53.422802,"lng":-7.942743,"postcode":null,"source":{"name":"OpenChargeMap","url":"http:\/\/openchargemap.org\/site\/poi\/details\/26023"},"connectors":[{"status":"online","type":{"title":"AC (socket)","id":4},"power":22,"quantity":2}]},{"provider":"ESB ecars","provider_openid":22,"name":"Castle Street","lat":53.422802,"lng":-7.942743,"postcode":null,"source":{"name":"OpenChargeMap","url":"http:\/\/openchargemap.org\/site\/poi\/details\/26023"},"connectors":[{"status":"online","type":{"title":"AC (socket)","id":4},"power":22,"quantity":2}]},{"provider":"ESB ecars","provider_openid":22,"name":"East End Car Park","lat":52.683379,"lng":-9.647069,"postcode":null,"source":{"name":"OpenChargeMap","url":"http:\/\/openchargemap.org\/site\/poi\/details\/25999"},"connectors":[{"status":"online","type":{"title":"AC (socket)","id":4},"power":22,"quantity":2}]},{"provider":"ESB ecars","provider_openid":22,"name":"East End Car Park","lat":52.683379,"lng":-9.647069,"postcode":null,"source":{"name":"OpenChargeMap","url":"http:\/\/openchargemap.org\/site\/poi\/details\/25999"},"connectors":[{"status":"online","type":{"title":"AC (socket)","id":4},"power":22,"quantity":2}]},{"provider":"ESB ecars","provider_openid":22,"name":"Greek Street","lat":53.354892,"lng":-6.287405,"postcode":null,"source":{"name":"OpenChargeMap","url":"http:\/\/openchargemap.org\/site\/poi\/details\/26018"},"connectors":[{"status":"online","type":{"title":"AC (socket)","id":4},"power":22,"quantity":2}]},{"provider":"ESB ecars","provider_openid":22,"name":"Main Street","lat":53.768179,"lng":-8.49094,"postcode":null,"source":{"name":"OpenChargeMap","url":"http:\/\/openchargemap.org\/site\/poi\/details\/26032"},"connectors":[{"status":"online","type":{"title":"AC (socket)","id":4},"power":22,"quantity":2}]},{"provider":"ESB ecars","provider_openid":22,"name":"O'Connell Square","lat":53.343173440278,"lng":-7.0485786502625,"postcode":null,"source":{"name":"OpenChargeMap","url":"http:\/\/openchargemap.org\/site\/poi\/details\/25774"},"connectors":[{"status":"online","type":{"title":"AC (socket)","id":4},"power":22,"quantity":2}]},{"provider":"ESB ecars","provider_openid":22,"name":"Off Link Road","lat":53.160278942309,"lng":-7.1874739245758,"postcode":null,"source":{"name":"OpenChargeMap","url":"http:\/\/openchargemap.org\/site\/poi\/details\/25772"},"connectors":[{"status":"online","type":{"title":"AC (socket)","id":4},"power":22,"quantity":2}]},{"provider":"ESB ecars","provider_openid":22,"name":"O'Moore Street","lat":53.118139235804,"lng":-7.333104181012,"postcode":null,"source":{"name":"OpenChargeMap","url":"http:\/\/openchargemap.org\/site\/poi\/details\/25769"},"connectors":[{"status":"online","type":{"title":"AC (socket)","id":4},"power":22,"quantity":2}]},{"provider":"ESB ecars","provider_openid":22,"name":"Nurney Service Station","lat":53.094094836957,"lng":-6.9475542207626,"postcode":null,"source":{"name":"OpenChargeMap","url":"http:\/\/openchargemap.org\/site\/poi\/details\/25764"},"connectors":[{"status":"offline","type":{"title":"AC (socket)","id":4},"power":22,"quantity":2}]},{"provider":"ESB ecars","provider_openid":22,"name":" Tesco Whitegates","lat":52.983054118953,"lng":-6.0505896454421,"postcode":null,"source":{"name":"OpenChargeMap","url":"http:\/\/openchargemap.org\/site\/poi\/details\/25752"},"connectors":[{"status":"online","type":{"title":"CHAdeMO","id":1},"power":50,"quantity":1},{"status":"online","type":{"title":"CCS","id":2},"power":50,"quantity":1},{"status":"online","type":{"title":"AC (tethered)","id":3},"power":43,"quantity":1}]},{"provider":"ESB ecars","provider_openid":22,"name":"Kee's Service Station","lat":54.615262640734,"lng":-8.0898852217041,"postcode":null,"source":{"name":"OpenChargeMap","url":"http:\/\/openchargemap.org\/site\/poi\/details\/25751"},"connectors":[{"status":"online","type":{"title":"CHAdeMO","id":1},"power":50,"quantity":1},{"status":"online","type":{"title":"CCS","id":2},"power":50,"quantity":1},{"status":"online","type":{"title":"AC (tethered)","id":3},"power":43,"quantity":1}]},{"provider":"ESB ecars","provider_openid":22,"name":"Centra Kilbeggan","lat":53.363713622805,"lng":-7.4967178539673,"postcode":null,"source":{"name":"OpenChargeMap","url":"http:\/\/openchargemap.org\/site\/poi\/details\/25750"},"connectors":[{"status":"online","type":{"title":"CHAdeMO","id":1},"power":50,"quantity":1},{"status":"online","type":{"title":"CCS","id":2},"power":50,"quantity":1},{"status":"online","type":{"title":"AC (tethered)","id":3},"power":43,"quantity":1}]},{"provider":"ESB ecars","provider_openid":22,"name":"Holy Cross Station","lat":52.241163159989,"lng":-7.170900771376,"postcode":null,"source":{"name":"OpenChargeMap","url":"http:\/\/openchargemap.org\/site\/poi\/details\/25748"},"connectors":[{"status":"online","type":{"title":"CHAdeMO","id":1},"power":50,"quantity":1},{"status":"online","type":{"title":"CCS","id":2},"power":50,"quantity":1},{"status":"online","type":{"title":"AC (tethered)","id":3},"power":43,"quantity":1}]},{"provider":"ESB ecars","provider_openid":22,"name":"Park Pointe","lat":53.282609134601,"lng":-6.1438659047547,"postcode":null,"source":{"name":"OpenChargeMap","url":"http:\/\/openchargemap.org\/site\/poi\/details\/25746"},"connectors":[{"status":"online","type":{"title":"CHAdeMO","id":1},"power":50,"quantity":1},{"status":"online","type":{"title":"CCS","id":2},"power":50,"quantity":1},{"status":"online","type":{"title":"AC (tethered)","id":3},"power":43,"quantity":1},{"status":"unknown","type":{"title":"CHAdeMO","id":1},"power":50,"quantity":1}]},{"provider":"ESB ecars","provider_openid":22,"name":"Topaz Dublin Airport","lat":53.428629060076,"lng":-6.2341220732128,"postcode":null,"source":{"name":"OpenChargeMap","url":"http:\/\/openchargemap.org\/site\/poi\/details\/25745"},"connectors":[{"status":"online","type":{"title":"CHAdeMO","id":1},"power":50,"quantity":1},{"status":"online","type":{"title":"CCS","id":2},"power":50,"quantity":1},{"status":"online","type":{"title":"AC (tethered)","id":3},"power":43,"quantity":1}]},{"provider":"ESB ecars","provider_openid":22,"name":"Blanchardstown","lat":53.392030532816,"lng":-6.3929057121277,"postcode":null,"source":{"name":"OpenChargeMap","url":"http:\/\/openchargemap.org\/site\/poi\/details\/24557"},"connectors":[{"status":"online","type":{"title":"CHAdeMO","id":1},"power":50,"quantity":1},{"status":"online","type":{"title":"CCS","id":2},"power":50,"quantity":1},{"status":"online","type":{"title":"AC (tethered)","id":3},"power":43,"quantity":1},{"status":"online","type":{"title":"AC (socket)","id":4},"power":22,"quantity":2}]},{"provider":"ESB ecars","provider_openid":22,"name":"Hospital Car Park","lat":54.960881553225,"lng":-7.7317366365235,"postcode":null,"source":{"name":"OpenChargeMap","url":"http:\/\/openchargemap.org\/site\/poi\/details\/24495"},"connectors":[{"status":"offline","type":{"title":"AC (socket)","id":4},"power":22,"quantity":2}]},{"provider":"ESB ecars","provider_openid":22,"name":"Justice Walsh Car-Park","lat":54.951508,"lng":-7.734554,"postcode":null,"source":{"name":"OpenChargeMap","url":"http:\/\/openchargemap.org\/site\/poi\/details\/24494"},"connectors":[{"status":"online","type":{"title":"AC (socket)","id":4},"power":22,"quantity":2}]},{"provider":"ESB ecars","provider_openid":22,"name":"Aura Lesiure Centre","lat":54.946769,"lng":-7.751151,"postcode":null,"source":{"name":"OpenChargeMap","url":"http:\/\/openchargemap.org\/site\/poi\/details\/24492"},"connectors":[{"status":"offline","type":{"title":"AC (socket)","id":4},"power":22,"quantity":2}]},{"provider":"ESB ecars","provider_openid":22,"name":"Tobin's Service Station","lat":54.951505233908,"lng":-7.724805808429,"postcode":null,"source":{"name":"OpenChargeMap","url":"http:\/\/openchargemap.org\/site\/poi\/details\/24489"},"connectors":[{"status":"online","type":{"title":"CHAdeMO","id":1},"power":50,"quantity":1},{"status":"online","type":{"title":"AC (socket)","id":4},"power":22,"quantity":2}]},{"provider":"ESB ecars","provider_openid":22,"name":"Supervalu Car Park","lat":52.956953,"lng":-7.801199,"postcode":null,"source":{"name":"OpenChargeMap","url":"http:\/\/openchargemap.org\/site\/poi\/details\/24445"},"connectors":[{"status":"online","type":{"title":"AC (socket)","id":4},"power":22,"quantity":2}]},{"provider":"ESB ecars","provider_openid":22,"name":"Abbey Road Car Park","lat":53.654434,"lng":-6.683919,"postcode":null,"source":{"name":"OpenChargeMap","url":"http:\/\/openchargemap.org\/site\/poi\/details\/24444"},"connectors":[{"status":"online","type":{"title":"AC (socket)","id":4},"power":22,"quantity":2}]},{"provider":"ESB ecars","provider_openid":22,"name":"Fairgreen Public Car Park","lat":53.65158869088,"lng":-6.6842988492126,"postcode":null,"source":{"name":"OpenChargeMap","url":"http:\/\/openchargemap.org\/site\/poi\/details\/24443"},"connectors":[{"status":"online","type":{"title":"AC (socket)","id":4},"power":22,"quantity":2}]},{"provider":"ESB ecars","provider_openid":22,"name":"Kells Road Car Park","lat":53.655645484081,"lng":-6.6873243809814,"postcode":null,"source":{"name":"OpenChargeMap","url":"http:\/\/openchargemap.org\/site\/poi\/details\/24442"},"connectors":[{"status":"online","type":{"title":"AC (socket)","id":4},"power":22,"quantity":2}]},{"provider":"ESB ecars","provider_openid":22,"name":"The Grove","lat":53.86385,"lng":-7.204457,"postcode":null,"source":{"name":"OpenChargeMap","url":"http:\/\/openchargemap.org\/site\/poi\/details\/24441"},"connectors":[{"status":"online","type":{"title":"AC (socket)","id":4},"power":22,"quantity":2}]},{"provider":"ESB ecars","provider_openid":22,"name":"Virginia","lat":53.8347779,"lng":-7.0828858904907,"postcode":null,"source":{"name":"OpenChargeMap","url":"http:\/\/openchargemap.org\/site\/poi\/details\/24440"},"connectors":[{"status":"online","type":{"title":"AC (socket)","id":4},"power":22,"quantity":2}]},{"provider":"ESB ecars","provider_openid":22,"name":"Dublin Road Cavan","lat":53.98549639443,"lng":-7.3597406084595,"postcode":null,"source":{"name":"OpenChargeMap","url":"http:\/\/openchargemap.org\/site\/poi\/details\/24439"},"connectors":[{"status":"online","type":{"title":"AC (socket)","id":4},"power":22,"quantity":2}]},{"provider":"ESB ecars","provider_openid":22,"name":"Military Road","lat":53.97367,"lng":-8.300383,"postcode":null,"source":{"name":"OpenChargeMap","url":"http:\/\/openchargemap.org\/site\/poi\/details\/24437"},"connectors":[{"status":"online","type":{"title":"AC (socket)","id":4},"power":22,"quantity":2}]},{"provider":"ESB ecars","provider_openid":22,"name":"Glebe Street","lat":53.922088531251,"lng":-7.8665599449829,"postcode":null,"source":{"name":"OpenChargeMap","url":"http:\/\/openchargemap.org\/site\/poi\/details\/24435"},"connectors":[{"status":"online","type":{"title":"AC (socket)","id":4},"power":22,"quantity":2}]},{"provider":"ESB ecars","provider_openid":22,"name":"Market Yard Car Park","lat":54.500935078138,"lng":-8.1885143142184,"postcode":null,"source":{"name":"OpenChargeMap","url":"http:\/\/openchargemap.org\/site\/poi\/details\/24434"},"connectors":[{"status":"online","type":{"title":"AC (socket)","id":4},"power":22,"quantity":2}]},{"provider":"ESB ecars","provider_openid":22,"name":"Shore Road","lat":54.635868614791,"lng":-8.4433563805685,"postcode":null,"source":{"name":"OpenChargeMap","url":"http:\/\/openchargemap.org\/site\/poi\/details\/24433"},"connectors":[{"status":"online","type":{"title":"AC (socket)","id":4},"power":22,"quantity":2}]},{"provider":"ESB ecars","provider_openid":22,"name":"Shore Road","lat":54.635868614791,"lng":-8.4433563805685,"postcode":null,"source":{"name":"OpenChargeMap","url":"http:\/\/openchargemap.org\/site\/poi\/details\/24433"},"connectors":[{"status":"online","type":{"title":"AC (socket)","id":4},"power":22,"quantity":2}]},{"provider":"ESB ecars","provider_openid":22,"name":"Across from Glenties Day Care Centre","lat":54.797976017207,"lng":-8.2845281148193,"postcode":null,"source":{"name":"OpenChargeMap","url":"http:\/\/openchargemap.org\/site\/poi\/details\/24432"},"connectors":[{"status":"online","type":{"title":"AC (socket)","id":4},"power":22,"quantity":2}]},{"provider":"ESB ecars","provider_openid":22,"name":"Across from Glenties Day Care Centre","lat":54.797976017207,"lng":-8.2845281148193,"postcode":null,"source":{"name":"OpenChargeMap","url":"http:\/\/openchargemap.org\/site\/poi\/details\/24432"},"connectors":[{"status":"online","type":{"title":"AC (socket)","id":4},"power":22,"quantity":2}]},{"provider":"ESB ecars","provider_openid":22,"name":"Off Lower Main Street","lat":54.950229278803,"lng":-8.3617977365234,"postcode":null,"source":{"name":"OpenChargeMap","url":"http:\/\/openchargemap.org\/site\/poi\/details\/24431"},"connectors":[{"status":"online","type":{"title":"AC (socket)","id":4},"power":22,"quantity":2}]},{"provider":"ESB ecars","provider_openid":22,"name":"Shore Front Car Park","lat":55.130633583582,"lng":-7.4611127429139,"postcode":null,"source":{"name":"OpenChargeMap","url":"http:\/\/openchargemap.org\/site\/poi\/details\/24429"},"connectors":[{"status":"offline","type":{"title":"AC (socket)","id":4},"power":22,"quantity":2}]},{"provider":"ESB ecars","provider_openid":22,"name":"Nailors Row","lat":55.137466000615,"lng":-7.4567568354737,"postcode":null,"source":{"name":"OpenChargeMap","url":"http:\/\/openchargemap.org\/site\/poi\/details\/24428"},"connectors":[{"status":"online","type":{"title":"AC (socket)","id":4},"power":22,"quantity":2}]},{"provider":"ESB ecars","provider_openid":22,"name":"Ferris Lane","lat":55.135935,"lng":-7.452539,"postcode":null,"source":{"name":"OpenChargeMap","url":"http:\/\/openchargemap.org\/site\/poi\/details\/24427"},"connectors":[{"status":"online","type":{"title":"AC (socket)","id":4},"power":22,"quantity":2}]},{"provider":"ESB ecars","provider_openid":22,"name":"Town Market","lat":55.251046633428,"lng":-7.2627440441001,"postcode":null,"source":{"name":"OpenChargeMap","url":"http:\/\/openchargemap.org\/site\/poi\/details\/24426"},"connectors":[{"status":"online","type":{"title":"AC (socket)","id":4},"power":22,"quantity":2}]},{"provider":"ESB ecars","provider_openid":22,"name":"Moy Court","lat":54.115782325944,"lng":-9.1497766724609,"postcode":null,"source":{"name":"OpenChargeMap","url":"http:\/\/openchargemap.org\/site\/poi\/details\/24425"},"connectors":[{"status":"offline","type":{"title":"AC (socket)","id":4},"power":22,"quantity":2}]},{"provider":"ESB ecars","provider_openid":22,"name":"Toorglais Road","lat":54.222776340721,"lng":-9.9893194813154,"postcode":null,"source":{"name":"OpenChargeMap","url":"http:\/\/openchargemap.org\/site\/poi\/details\/24424"},"connectors":[{"status":"online","type":{"title":"AC (socket)","id":4},"power":22,"quantity":2}]},{"provider":"ESB ecars","provider_openid":22,"name":"Supervalu Ballaghaderreen","lat":53.902199,"lng":-8.5851758,"postcode":"","source":{"name":"OpenChargeMap","url":"http:\/\/openchargemap.org\/site\/poi\/details\/24423"},"connectors":[{"status":"online","type":{"title":"CHAdeMO","id":1},"power":50,"quantity":1},{"status":"online","type":{"title":"AC (tethered)","id":3},"power":43,"quantity":2}]},{"provider":"ESB ecars","provider_openid":22,"name":"New Street","lat":53.900506898626,"lng":-8.5835944476874,"postcode":null,"source":{"name":"OpenChargeMap","url":"http:\/\/openchargemap.org\/site\/poi\/details\/24422"},"connectors":[{"status":"online","type":{"title":"AC (socket)","id":4},"power":22,"quantity":2}]},{"provider":"ESB ecars","provider_openid":22,"name":"McHugh's Service Station","lat":53.667599067187,"lng":-8.9554684476075,"postcode":null,"source":{"name":"OpenChargeMap","url":"http:\/\/openchargemap.org\/site\/poi\/details\/24421"},"connectors":[{"status":"online","type":{"title":"CHAdeMO","id":1},"power":50,"quantity":1},{"status":"online","type":{"title":"AC (socket)","id":4},"power":22,"quantity":2}]},{"provider":"ESB ecars","provider_openid":22,"name":"The Shambles Car Park","lat":53.514124130019,"lng":-8.8523855201294,"postcode":null,"source":{"name":"OpenChargeMap","url":"http:\/\/openchargemap.org\/site\/poi\/details\/24420"},"connectors":[{"status":"online","type":{"title":"AC (socket)","id":4},"power":22,"quantity":2}]},{"provider":"ESB ecars","provider_openid":22,"name":"West End","lat":53.19177372185,"lng":-7.9904864656372,"postcode":null,"source":{"name":"OpenChargeMap","url":"http:\/\/openchargemap.org\/site\/poi\/details\/24419"},"connectors":[{"status":"offline","type":{"title":"AC (socket)","id":4},"power":22,"quantity":2}]},{"provider":"ESB ecars","provider_openid":22,"name":"West End","lat":53.19177372185,"lng":-7.9904864656372,"postcode":null,"source":{"name":"OpenChargeMap","url":"http:\/\/openchargemap.org\/site\/poi\/details\/24419"},"connectors":[{"status":"offline","type":{"title":"AC (socket)","id":4},"power":22,"quantity":2}]},{"provider":"ESB ecars","provider_openid":22,"name":"Dolan's Service Station","lat":53.328498148459,"lng":-8.1851051580438,"postcode":null,"source":{"name":"OpenChargeMap","url":"http:\/\/openchargemap.org\/site\/poi\/details\/24418"},"connectors":[{"status":"online","type":{"title":"CHAdeMO","id":1},"power":50,"quantity":1},{"status":"online","type":{"title":"AC (tethered)","id":3},"power":43,"quantity":1},{"status":"online","type":{"title":"CCS","id":2},"power":50,"quantity":1}]},{"provider":"ESB ecars","provider_openid":22,"name":"Off Grove Crescent - Abbeyfeale","lat":52.384278315166,"lng":-9.2989740793457,"postcode":null,"source":{"name":"OpenChargeMap","url":"http:\/\/openchargemap.org\/site\/poi\/details\/24416"},"connectors":[{"status":"online","type":{"title":"AC (socket)","id":4},"power":22,"quantity":2}]},{"provider":"ESB ecars","provider_openid":22,"name":"Heritage Centre Parking - Adare","lat":52.565132,"lng":-8.790471,"postcode":null,"source":{"name":"OpenChargeMap","url":"http:\/\/openchargemap.org\/site\/poi\/details\/24415"},"connectors":[{"status":"online","type":{"title":"AC (socket)","id":4},"power":22,"quantity":2}]},{"provider":"ESB ecars","provider_openid":22,"name":"Heritage Centre Parking - Adare","lat":52.565132,"lng":-8.790471,"postcode":null,"source":{"name":"OpenChargeMap","url":"http:\/\/openchargemap.org\/site\/poi\/details\/24415"},"connectors":[{"status":"online","type":{"title":"AC (socket)","id":4},"power":22,"quantity":2}]},{"provider":"ESB ecars","provider_openid":22,"name":"Quays Car Park - Courtown Harbour","lat":52.64472782887,"lng":-6.2277378340355,"postcode":null,"source":{"name":"OpenChargeMap","url":"http:\/\/openchargemap.org\/site\/poi\/details\/24406"},"connectors":[{"status":"online","type":{"title":"AC (socket)","id":4},"power":22,"quantity":2}]},{"provider":"ESB ecars","provider_openid":22,"name":"Dock Road","lat":52.152829004547,"lng":-6.9949753349182,"postcode":null,"source":{"name":"OpenChargeMap","url":"http:\/\/openchargemap.org\/site\/poi\/details\/24403"},"connectors":[{"status":"online","type":{"title":"AC (socket)","id":4},"power":22,"quantity":2}]},{"provider":"ESB ecars","provider_openid":22,"name":"Mary Street Carpark","lat":52.353387976497,"lng":-7.7030521507874,"postcode":null,"source":{"name":"OpenChargeMap","url":"http:\/\/openchargemap.org\/site\/poi\/details\/24402"},"connectors":[{"status":"online","type":{"title":"AC (socket)","id":4},"power":22,"quantity":2}]},{"provider":"ESB ecars","provider_openid":22,"name":"Texaco Urlingford","lat":52.719100314428,"lng":-7.5856971931457,"postcode":null,"source":{"name":"OpenChargeMap","url":"http:\/\/openchargemap.org\/site\/poi\/details\/24401"},"connectors":[{"status":"online","type":{"title":"CHAdeMO","id":1},"power":50,"quantity":1},{"status":"online","type":{"title":"CCS","id":2},"power":50,"quantity":1},{"status":"online","type":{"title":"AC (tethered)","id":3},"power":43,"quantity":1}]},{"provider":"ESB ecars","provider_openid":22,"name":"Abbeyleix","lat":52.912807122036,"lng":-7.3466918052795,"postcode":null,"source":{"name":"OpenChargeMap","url":"http:\/\/openchargemap.org\/site\/poi\/details\/24400"},"connectors":[{"status":"online","type":{"title":"AC (socket)","id":4},"power":22,"quantity":2}]},{"provider":"ESB ecars","provider_openid":22,"name":"Green Street","lat":52.5421937,"lng":-7.3917409000001,"postcode":null,"source":{"name":"OpenChargeMap","url":"http:\/\/openchargemap.org\/site\/poi\/details\/24398"},"connectors":[{"status":"online","type":{"title":"AC (socket)","id":4},"power":22,"quantity":2}]},{"provider":"ESB ecars","provider_openid":22,"name":"The Quay","lat":52.526288412692,"lng":-7.1358057936402,"postcode":null,"source":{"name":"OpenChargeMap","url":"http:\/\/openchargemap.org\/site\/poi\/details\/24397"},"connectors":[{"status":"online","type":{"title":"AC (socket)","id":4},"power":22,"quantity":2}]},{"provider":"ESB ecars","provider_openid":22,"name":"Emo Knocktopher","lat":52.4864548,"lng":-7.2183689999999,"postcode":null,"source":{"name":"OpenChargeMap","url":"http:\/\/openchargemap.org\/site\/poi\/details\/24396"},"connectors":[{"status":"online","type":{"title":"CHAdeMO","id":1},"power":50,"quantity":1}]},{"provider":"ESB ecars","provider_openid":22,"name":"Midway Portlaoise","lat":53.01447345,"lng":-7.2996944696683,"postcode":null,"source":{"name":"OpenChargeMap","url":"http:\/\/openchargemap.org\/site\/poi\/details\/24395"},"connectors":[{"status":"online","type":{"title":"CHAdeMO","id":1},"power":50,"quantity":1},{"status":"online","type":{"title":"CCS","id":2},"power":50,"quantity":1},{"status":"online","type":{"title":"AC (tethered)","id":3},"power":43,"quantity":1}]},{"provider":"ESB ecars","provider_openid":22,"name":"Stranorlar","lat":54.804902369197,"lng":-7.7689003944397,"postcode":null,"source":{"name":"OpenChargeMap","url":"http:\/\/openchargemap.org\/site\/poi\/details\/24389"},"connectors":[{"status":"offline","type":{"title":"AC (socket)","id":4},"power":22,"quantity":2}]},{"provider":"ESB ecars","provider_openid":22,"name":"Navenny Car Par","lat":54.798037881834,"lng":-7.7832126617432,"postcode":null,"source":{"name":"OpenChargeMap","url":"http:\/\/openchargemap.org\/site\/poi\/details\/24388"},"connectors":[{"status":"online","type":{"title":"AC (socket)","id":4},"power":22,"quantity":2}]},{"provider":"ESB ecars","provider_openid":22,"name":"Tesco Naas","lat":53.239453579673,"lng":-6.6603326797485,"postcode":null,"source":{"name":"OpenChargeMap","url":"http:\/\/openchargemap.org\/site\/poi\/details\/24335"},"connectors":[{"status":"online","type":{"title":"CHAdeMO","id":1},"power":50,"quantity":1},{"status":"online","type":{"title":"CCS","id":2},"power":50,"quantity":1},{"status":"online","type":{"title":"AC (tethered)","id":3},"power":43,"quantity":1}]},{"provider":"ESB ecars","provider_openid":22,"name":"Topaz Roscrea","lat":52.94649163318,"lng":-7.7970099449158,"postcode":null,"source":{"name":"OpenChargeMap","url":"http:\/\/openchargemap.org\/site\/poi\/details\/24221"},"connectors":[{"status":"online","type":{"title":"CHAdeMO","id":1},"power":50,"quantity":1},{"status":"online","type":{"title":"CCS","id":2},"power":50,"quantity":1},{"status":"online","type":{"title":"AC (tethered)","id":3},"power":43,"quantity":1}]},{"provider":"ESB ecars","provider_openid":22,"name":"Newcastle West","lat":52.452436000486,"lng":-9.0616754551003,"postcode":null,"source":{"name":"OpenChargeMap","url":"http:\/\/openchargemap.org\/site\/poi\/details\/24031"},"connectors":[{"status":"online","type":{"title":"AC (socket)","id":4},"power":22,"quantity":2},{"status":"online","type":{"title":"CHAdeMO","id":1},"power":50,"quantity":1}]},{"provider":"ESB ecars","provider_openid":22,"name":"Four Lakes Retail Park","lat":52.846349516198,"lng":-6.9027741609192,"postcode":null,"source":{"name":"OpenChargeMap","url":"http:\/\/openchargemap.org\/site\/poi\/details\/24026"},"connectors":[{"status":"online","type":{"title":"CHAdeMO","id":1},"power":50,"quantity":1},{"status":"online","type":{"title":"AC (socket)","id":4},"power":22,"quantity":2}]},{"provider":"ESB ecars","provider_openid":22,"name":"Topaz Ennis","lat":52.83078,"lng":-8.979003,"postcode":null,"source":{"name":"OpenChargeMap","url":"http:\/\/openchargemap.org\/site\/poi\/details\/22893"},"connectors":[{"status":"online","type":{"title":"CHAdeMO","id":1},"power":50,"quantity":1}]},{"provider":"ESB ecars","provider_openid":22,"name":"Sutton DART Station","lat":53.391623,"lng":-6.116236,"postcode":null,"source":{"name":"OpenChargeMap","url":"http:\/\/openchargemap.org\/site\/poi\/details\/22894"},"connectors":[{"status":"unknown","type":{"title":"AC (socket)","id":4},"power":22,"quantity":2}]},{"provider":"ESB ecars","provider_openid":22,"name":"Irish Rail Train Station Car Park","lat":52.270976,"lng":-9.699875,"postcode":null,"source":{"name":"OpenChargeMap","url":"http:\/\/openchargemap.org\/site\/poi\/details\/22896"},"connectors":[{"status":"online","type":{"title":"AC (socket)","id":4},"power":22,"quantity":2}]},{"provider":"ESB ecars","provider_openid":22,"name":"High Street","lat":52.337426,"lng":-6.46209,"postcode":null,"source":{"name":"OpenChargeMap","url":"http:\/\/openchargemap.org\/site\/poi\/details\/22898"},"connectors":[{"status":"online","type":{"title":"AC (socket)","id":4},"power":22,"quantity":2}]},{"provider":"ESB ecars","provider_openid":22,"name":"Laffins Lane Car Park","lat":52.796732,"lng":-6.154016,"postcode":null,"source":{"name":"OpenChargeMap","url":"http:\/\/openchargemap.org\/site\/poi\/details\/22899"},"connectors":[{"status":"online","type":{"title":"AC (socket)","id":4},"power":22,"quantity":2}]},{"provider":"ESB ecars","provider_openid":22,"name":"Laffins Lane Car Park","lat":52.796732,"lng":-6.154016,"postcode":null,"source":{"name":"OpenChargeMap","url":"http:\/\/openchargemap.org\/site\/poi\/details\/22899"},"connectors":[{"status":"online","type":{"title":"AC (socket)","id":4},"power":22,"quantity":2}]},{"provider":"ESB ecars","provider_openid":22,"name":"Synge Street","lat":53.333894,"lng":-6.267083,"postcode":null,"source":{"name":"OpenChargeMap","url":"http:\/\/openchargemap.org\/site\/poi\/details\/22895"},"connectors":[{"status":"online","type":{"title":"AC (socket)","id":4},"power":22,"quantity":2}]},{"provider":"ESB ecars","provider_openid":22,"name":"Hydro Hotel","lat":53.027069,"lng":-9.290289,"postcode":null,"source":{"name":"OpenChargeMap","url":"http:\/\/openchargemap.org\/site\/poi\/details\/21236"},"connectors":[{"status":"online","type":{"title":"AC (socket)","id":4},"power":22,"quantity":2}]},{"provider":"ESB ecars","provider_openid":22,"name":"51 South Mall","lat":51.896298,"lng":-8.473326,"postcode":null,"source":{"name":"OpenChargeMap","url":"http:\/\/openchargemap.org\/site\/poi\/details\/21187"},"connectors":[{"status":"online","type":{"title":"AC (socket)","id":4},"power":22,"quantity":2}]},{"provider":"ESB ecars","provider_openid":22,"name":"Malahide DART Station","lat":53.451478,"lng":-6.156156,"postcode":null,"source":{"name":"OpenChargeMap","url":"http:\/\/openchargemap.org\/site\/poi\/details\/21108"},"connectors":[{"status":"online","type":{"title":"AC (socket)","id":4},"power":22,"quantity":2}]},{"provider":"ESB ecars","provider_openid":22,"name":"Clifton House","lat":53.337122,"lng":-6.248843,"postcode":null,"source":{"name":"OpenChargeMap","url":"http:\/\/openchargemap.org\/site\/poi\/details\/21070"},"connectors":[{"status":"online","type":{"title":"AC (socket)","id":4},"power":22,"quantity":2}]},{"provider":"ESB ecars","provider_openid":22,"name":"Ennis Road","lat":52.761544,"lng":-8.897258,"postcode":null,"source":{"name":"OpenChargeMap","url":"http:\/\/openchargemap.org\/site\/poi\/details\/21071"},"connectors":[{"status":"online","type":{"title":"AC (socket)","id":4},"power":22,"quantity":2}]},{"provider":"ESB ecars","provider_openid":22,"name":"Dundrum Shopping Centre","lat":53.286074,"lng":-6.242405,"postcode":"","source":{"name":"OpenChargeMap","url":"http:\/\/openchargemap.org\/site\/poi\/details\/21073"},"connectors":[{"status":"online","type":{"title":"AC (socket)","id":4},"power":22,"quantity":4}]},{"provider":"ESB ecars","provider_openid":22,"name":"The Turrets","lat":52.358365,"lng":-8.686061,"postcode":null,"source":{"name":"OpenChargeMap","url":"http:\/\/openchargemap.org\/site\/poi\/details\/20919"},"connectors":[{"status":"online","type":{"title":"AC (socket)","id":4},"power":22,"quantity":2}]},{"provider":"ESB ecars","provider_openid":22,"name":"Irish Rail Coolmine","lat":53.377326,"lng":-6.391846,"postcode":null,"source":{"name":"OpenChargeMap","url":"http:\/\/openchargemap.org\/site\/poi\/details\/20692"},"connectors":[{"status":"online","type":{"title":"AC (socket)","id":4},"power":22,"quantity":2}]},{"provider":"ESB ecars","provider_openid":22,"name":"Oranmore Irish Rail Station Car Park","lat":53.275327,"lng":-8.947087,"postcode":null,"source":{"name":"OpenChargeMap","url":"http:\/\/openchargemap.org\/site\/poi\/details\/20696"},"connectors":[{"status":"online","type":{"title":"AC (socket)","id":4},"power":22,"quantity":2}]},{"provider":"ESB ecars","provider_openid":22,"name":"29 Adelaide Road","lat":53.332326,"lng":-6.255804,"postcode":null,"source":{"name":"OpenChargeMap","url":"http:\/\/openchargemap.org\/site\/poi\/details\/20691"},"connectors":[{"status":"unknown","type":{"title":"AC (socket)","id":4},"power":22,"quantity":2}]},{"provider":"ESB ecars","provider_openid":22,"name":"29 Adelaide Road","lat":53.332326,"lng":-6.255804,"postcode":null,"source":{"name":"OpenChargeMap","url":"http:\/\/openchargemap.org\/site\/poi\/details\/20691"},"connectors":[{"status":"unknown","type":{"title":"AC (socket)","id":4},"power":22,"quantity":2}]},{"provider":"ESB ecars","provider_openid":22,"name":"Q-Park Multi-Storey Car Park","lat":53.352022,"lng":-6.258432,"postcode":null,"source":{"name":"OpenChargeMap","url":"http:\/\/openchargemap.org\/site\/poi\/details\/20695"},"connectors":[{"status":"online","type":{"title":"AC (socket)","id":4},"power":22,"quantity":2}]},{"provider":"ESB ecars","provider_openid":22,"name":"Glebe Car Park","lat":52.059533,"lng":-9.507251,"postcode":null,"source":{"name":"OpenChargeMap","url":"http:\/\/openchargemap.org\/site\/poi\/details\/20655"},"connectors":[{"status":"online","type":{"title":"AC (socket)","id":4},"power":22,"quantity":2}]},{"provider":"ESB ecars","provider_openid":22,"name":"Park View Avenue","lat":53.322996,"lng":-6.278087,"postcode":null,"source":{"name":"OpenChargeMap","url":"http:\/\/openchargemap.org\/site\/poi\/details\/19699"},"connectors":[{"status":"online","type":{"title":"AC (socket)","id":4},"power":22,"quantity":2}]},{"provider":"ESB ecars","provider_openid":22,"name":"Tipperary - Texaco Service Station","lat":52.37392,"lng":-7.93496,"postcode":null,"source":{"name":"OpenChargeMap","url":"http:\/\/openchargemap.org\/site\/poi\/details\/19136"},"connectors":[{"status":"online","type":{"title":"CHAdeMO","id":1},"power":50,"quantity":1},{"status":"online","type":{"title":"AC (socket)","id":4},"power":22,"quantity":2}]},{"provider":"ESB ecars","provider_openid":22,"name":"Limerick - Topaz Service Station","lat":52.67159,"lng":-8.63555,"postcode":null,"source":{"name":"OpenChargeMap","url":"http:\/\/openchargemap.org\/site\/poi\/details\/19135"},"connectors":[{"status":"online","type":{"title":"CHAdeMO","id":1},"power":50,"quantity":1},{"status":"online","type":{"title":"AC (socket)","id":4},"power":22,"quantity":1}]},{"provider":"ESB ecars","provider_openid":22,"name":"Kildare - Applegreen Enfield (M4 Westbound)","lat":53.41096,"lng":-6.87933,"postcode":null,"source":{"name":"OpenChargeMap","url":"http:\/\/openchargemap.org\/site\/poi\/details\/19134"},"connectors":[{"status":"online","type":{"title":"CHAdeMO","id":1},"power":50,"quantity":1},{"status":"online","type":{"title":"AC (tethered)","id":3},"power":43,"quantity":1},{"status":"online","type":{"title":"CCS","id":2},"power":50,"quantity":1}]},{"provider":"ESB ecars","provider_openid":22,"name":"Kildare - Applegreen Enfield (M4 Eastbound)","lat":53.41281,"lng":-6.88259,"postcode":null,"source":{"name":"OpenChargeMap","url":"http:\/\/openchargemap.org\/site\/poi\/details\/19133"},"connectors":[{"status":"online","type":{"title":"CHAdeMO","id":1},"power":50,"quantity":1},{"status":"online","type":{"title":"AC (tethered)","id":3},"power":43,"quantity":1},{"status":"online","type":{"title":"CCS","id":2},"power":50,"quantity":1}]},{"provider":"ESB ecars","provider_openid":22,"name":"Applegreen Castlebellingham (M1 Southbound)","lat":53.92335,"lng":-6.41164,"postcode":null,"source":{"name":"OpenChargeMap","url":"http:\/\/openchargemap.org\/site\/poi\/details\/19131"},"connectors":[{"status":"online","type":{"title":"CHAdeMO","id":1},"power":50,"quantity":1},{"status":"online","type":{"title":"AC (tethered)","id":3},"power":43,"quantity":1},{"status":"online","type":{"title":"CCS","id":2},"power":50,"quantity":1}]},{"provider":"ESB ecars","provider_openid":22,"name":"Applegreen Castlebellingham (M1 Northbound)","lat":53.93214,"lng":-6.41782,"postcode":null,"source":{"name":"OpenChargeMap","url":"http:\/\/openchargemap.org\/site\/poi\/details\/19130"},"connectors":[{"status":"online","type":{"title":"CHAdeMO","id":1},"power":50,"quantity":1},{"status":"online","type":{"title":"AC (tethered)","id":3},"power":43,"quantity":1},{"status":"online","type":{"title":"CCS","id":2},"power":50,"quantity":1}]},{"provider":"ESB ecars","provider_openid":22,"name":"Sligo - Londis Grange Service Station","lat":54.389519,"lng":-8.528397,"postcode":null,"source":{"name":"OpenChargeMap","url":"http:\/\/openchargemap.org\/site\/poi\/details\/19129"},"connectors":[{"status":"online","type":{"title":"CHAdeMO","id":1},"power":50,"quantity":1},{"status":"online","type":{"title":"AC (socket)","id":4},"power":22,"quantity":2}]},{"provider":"ESB ecars","provider_openid":22,"name":"Randles Bros","lat":52.059533,"lng":-9.507251,"postcode":null,"source":{"name":"OpenChargeMap","url":"http:\/\/openchargemap.org\/site\/poi\/details\/19101"},"connectors":[{"status":"online","type":{"title":"CHAdeMO","id":1},"power":50,"quantity":1}]},{"provider":"ESB ecars","provider_openid":22,"name":"Topaz Frankfield Service Station","lat":51.872405,"lng":-8.470652,"postcode":null,"source":{"name":"OpenChargeMap","url":"http:\/\/openchargemap.org\/site\/poi\/details\/18989"},"connectors":[{"status":"online","type":{"title":"CHAdeMO","id":1},"power":50,"quantity":1},{"status":"unknown","type":{"title":"AC (socket)","id":4},"power":22,"quantity":1}]},{"provider":"ESB ecars","provider_openid":22,"name":"GAA Car Park","lat":53.011805,"lng":-6.108066,"postcode":null,"source":{"name":"OpenChargeMap","url":"http:\/\/openchargemap.org\/site\/poi\/details\/18944"},"connectors":[{"status":"offline","type":{"title":"AC (socket)","id":4},"power":22,"quantity":2}]},{"provider":"ESB ecars","provider_openid":22,"name":"Abbey Street","lat":52.340105,"lng":-6.463952,"postcode":null,"source":{"name":"OpenChargeMap","url":"http:\/\/openchargemap.org\/site\/poi\/details\/18933"},"connectors":[{"status":"online","type":{"title":"AC (socket)","id":4},"power":22,"quantity":2}]},{"provider":"ESB ecars","provider_openid":22,"name":"Quickpark","lat":53.41601,"lng":-6.242058,"postcode":null,"source":{"name":"OpenChargeMap","url":"http:\/\/openchargemap.org\/site\/poi\/details\/18915"},"connectors":[{"status":"online","type":{"title":"AC (socket)","id":4},"power":22,"quantity":2}]},{"provider":"ESB ecars","provider_openid":22,"name":"Kenmare Road","lat":51.750022,"lng":-9.553212,"postcode":null,"source":{"name":"OpenChargeMap","url":"http:\/\/openchargemap.org\/site\/poi\/details\/18913"},"connectors":[{"status":"online","type":{"title":"AC (socket)","id":4},"power":22,"quantity":2}]},{"provider":"ESB ecars","provider_openid":22,"name":"The Square","lat":51.650662,"lng":-9.910673,"postcode":null,"source":{"name":"OpenChargeMap","url":"http:\/\/openchargemap.org\/site\/poi\/details\/18914"},"connectors":[{"status":"online","type":{"title":"AC (socket)","id":4},"power":22,"quantity":2}]},{"provider":"ESB ecars","provider_openid":22,"name":"Applegreen Lusk (M1 Northbound)","lat":53.537438,"lng":-6.217076,"postcode":null,"source":{"name":"OpenChargeMap","url":"http:\/\/openchargemap.org\/site\/poi\/details\/18289"},"connectors":[{"status":"online","type":{"title":"CHAdeMO","id":1},"power":50,"quantity":1},{"status":"online","type":{"title":"AC (tethered)","id":3},"power":43,"quantity":1},{"status":"online","type":{"title":"CCS","id":2},"power":50,"quantity":1}]},{"provider":"ESB ecars","provider_openid":22,"name":"Applegreen Lusk (M1 Southbound)","lat":53.541493,"lng":-6.210338,"postcode":null,"source":{"name":"OpenChargeMap","url":"http:\/\/openchargemap.org\/site\/poi\/details\/18290"},"connectors":[{"status":"online","type":{"title":"CHAdeMO","id":1},"power":50,"quantity":1},{"status":"online","type":{"title":"AC (tethered)","id":3},"power":43,"quantity":1},{"status":"online","type":{"title":"CCS","id":2},"power":50,"quantity":1}]},{"provider":"ESB ecars","provider_openid":22,"name":"Texaco - Kiely's Service Station","lat":52.25783,"lng":-6.456163,"postcode":null,"source":{"name":"OpenChargeMap","url":"http:\/\/openchargemap.org\/site\/poi\/details\/18291"},"connectors":[{"status":"online","type":{"title":"CHAdeMO","id":1},"power":50,"quantity":1}]},{"provider":"ESB ecars","provider_openid":22,"name":"Topaz - Roche's Service Station","lat":52.300278,"lng":-6.45881,"postcode":null,"source":{"name":"OpenChargeMap","url":"http:\/\/openchargemap.org\/site\/poi\/details\/18292"},"connectors":[{"status":"online","type":{"title":"CHAdeMO","id":1},"power":50,"quantity":1}]},{"provider":"ESB ecars","provider_openid":22,"name":"Shannon Town Centre","lat":52.708176,"lng":-8.877285,"postcode":null,"source":{"name":"OpenChargeMap","url":"http:\/\/openchargemap.org\/site\/poi\/details\/18294"},"connectors":[{"status":"unknown","type":{"title":"AC (socket)","id":4},"power":22,"quantity":2}]},{"provider":"ESB ecars","provider_openid":22,"name":"Blackash park and ride","lat":51.87859,"lng":-8.466504,"postcode":null,"source":{"name":"OpenChargeMap","url":"http:\/\/openchargemap.org\/site\/poi\/details\/18300"},"connectors":[{"status":"online","type":{"title":"AC (socket)","id":4},"power":22,"quantity":2}]},{"provider":"ESB ecars","provider_openid":22,"name":"Golden Lane","lat":53.340573,"lng":-6.268513,"postcode":null,"source":{"name":"OpenChargeMap","url":"http:\/\/openchargemap.org\/site\/poi\/details\/18303"},"connectors":[{"status":"online","type":{"title":"AC (socket)","id":4},"power":22,"quantity":2}]},{"provider":"ESB ecars","provider_openid":22,"name":"Duffry Gate Car Park","lat":52.50341,"lng":-6.57359,"postcode":null,"source":{"name":"OpenChargeMap","url":"http:\/\/openchargemap.org\/site\/poi\/details\/18320"},"connectors":[{"status":"online","type":{"title":"AC (socket)","id":4},"power":22,"quantity":2}]},{"provider":"ESB ecars","provider_openid":22,"name":"Sportsfield Road","lat":51.839336,"lng":-9.901316,"postcode":null,"source":{"name":"OpenChargeMap","url":"http:\/\/openchargemap.org\/site\/poi\/details\/18319"},"connectors":[{"status":"online","type":{"title":"AC (socket)","id":4},"power":22,"quantity":2}]},{"provider":"ESB ecars","provider_openid":22,"name":"Off Society Street","lat":53.330623,"lng":-8.225283,"postcode":null,"source":{"name":"OpenChargeMap","url":"http:\/\/openchargemap.org\/site\/poi\/details\/18316"},"connectors":[{"status":"online","type":{"title":"AC (socket)","id":4},"power":22,"quantity":2}]},{"provider":"ESB ecars","provider_openid":22,"name":"Saint Michael's Square","lat":53.329333,"lng":-8.220936,"postcode":null,"source":{"name":"OpenChargeMap","url":"http:\/\/openchargemap.org\/site\/poi\/details\/18318"},"connectors":[{"status":"online","type":{"title":"AC (socket)","id":4},"power":22,"quantity":2}]},{"provider":"ESB ecars","provider_openid":22,"name":"Main Street","lat":53.415451,"lng":-6.834811,"postcode":null,"source":{"name":"OpenChargeMap","url":"http:\/\/openchargemap.org\/site\/poi\/details\/15885"},"connectors":[{"status":"online","type":{"title":"AC (socket)","id":4},"power":22,"quantity":2}]},{"provider":"ESB ecars","provider_openid":22,"name":"Finglas Road","lat":53.369052,"lng":-6.276341,"postcode":null,"source":{"name":"OpenChargeMap","url":"http:\/\/openchargemap.org\/site\/poi\/details\/15878"},"connectors":[{"status":"online","type":{"title":"AC (socket)","id":4},"power":22,"quantity":2}]},{"provider":"ESB ecars","provider_openid":22,"name":"Off Courthouse Lawn","lat":52.449026,"lng":-9.48427,"postcode":null,"source":{"name":"OpenChargeMap","url":"http:\/\/openchargemap.org\/site\/poi\/details\/15180"},"connectors":[{"status":"online","type":{"title":"AC (socket)","id":4},"power":22,"quantity":2}]},{"provider":"ESB ecars","provider_openid":22,"name":"The Square","lat":52.444613,"lng":-9.485837,"postcode":null,"source":{"name":"OpenChargeMap","url":"http:\/\/openchargemap.org\/site\/poi\/details\/15181"},"connectors":[{"status":"online","type":{"title":"AC (socket)","id":4},"power":22,"quantity":2}]},{"provider":"ESB ecars","provider_openid":22,"name":"The Green","lat":52.741566,"lng":-8.775394,"postcode":null,"source":{"name":"OpenChargeMap","url":"http:\/\/openchargemap.org\/site\/poi\/details\/15177"},"connectors":[{"status":"online","type":{"title":"AC (socket)","id":4},"power":22,"quantity":2}]},{"provider":"ESB ecars","provider_openid":22,"name":"Topaz Service Station","lat":54.2636,"lng":-6.9592,"postcode":null,"source":{"name":"OpenChargeMap","url":"http:\/\/openchargemap.org\/site\/poi\/details\/14890"},"connectors":[{"status":"online","type":{"title":"CHAdeMO","id":1},"power":50,"quantity":1}]},{"provider":"ESB ecars","provider_openid":22,"name":"Lunney's Service Station","lat":53.941292,"lng":-8.10011,"postcode":null,"source":{"name":"OpenChargeMap","url":"http:\/\/openchargemap.org\/site\/poi\/details\/14891"},"connectors":[{"status":"online","type":{"title":"CHAdeMO","id":1},"power":50,"quantity":1}]},{"provider":"ESB ecars","provider_openid":22,"name":"Topaz Service Station","lat":52.509038,"lng":-7.872552,"postcode":null,"source":{"name":"OpenChargeMap","url":"http:\/\/openchargemap.org\/site\/poi\/details\/14892"},"connectors":[{"status":"online","type":{"title":"CHAdeMO","id":1},"power":50,"quantity":1},{"status":"online","type":{"title":"CCS","id":2},"power":50,"quantity":1},{"status":"online","type":{"title":"AC (tethered)","id":3},"power":43,"quantity":1}]},{"provider":"ESB ecars","provider_openid":22,"name":"Nissan Dungarvan","lat":52.0836,"lng":-7.63686,"postcode":null,"source":{"name":"OpenChargeMap","url":"http:\/\/openchargemap.org\/site\/poi\/details\/14893"},"connectors":[{"status":"online","type":{"title":"CHAdeMO","id":1},"power":50,"quantity":1}]},{"provider":"ESB ecars","provider_openid":22,"name":"Maxol Service Station","lat":52.67806,"lng":-6.289287,"postcode":null,"source":{"name":"OpenChargeMap","url":"http:\/\/openchargemap.org\/site\/poi\/details\/14895"},"connectors":[{"status":"online","type":{"title":"CHAdeMO","id":1},"power":50,"quantity":1},{"status":"online","type":{"title":"AC (tethered)","id":3},"power":43,"quantity":1},{"status":"online","type":{"title":"CCS","id":2},"power":50,"quantity":1}]},{"provider":"ESB ecars","provider_openid":22,"name":"Texaco (Mace & Supermacs)","lat":53.6256,"lng":-7.4661,"postcode":null,"source":{"name":"OpenChargeMap","url":"http:\/\/openchargemap.org\/site\/poi\/details\/14897"},"connectors":[{"status":"online","type":{"title":"CHAdeMO","id":1},"power":50,"quantity":1}]},{"provider":"ESB ecars","provider_openid":22,"name":"Irish Rail","lat":52.841045,"lng":-6.923077,"postcode":null,"source":{"name":"OpenChargeMap","url":"http:\/\/openchargemap.org\/site\/poi\/details\/14900"},"connectors":[{"status":"online","type":{"title":"AC (socket)","id":4},"power":22,"quantity":2}]},{"provider":"ESB ecars","provider_openid":22,"name":"New Road","lat":52.801581,"lng":-6.736986,"postcode":null,"source":{"name":"OpenChargeMap","url":"http:\/\/openchargemap.org\/site\/poi\/details\/14901"},"connectors":[{"status":"online","type":{"title":"AC (socket)","id":4},"power":22,"quantity":2}]},